{"10009":{"no":"10009","lng":"103.81722480263163","name":"Bt Merah Int","lat":"1.28210155945393"},"10011":{"no":"10011","lng":"103.83749709165197","name":"Opp New Bridge Rd Ter","lat":"1.2777380589964"},"10017":{"no":"10017","lng":"103.83762574759974","name":"Aft Hosp Dr","lat":"1.27832046633393"},"10018":{"no":"10018","lng":"103.83860360621959","name":"Bef Outram Rd","lat":"1.27900819665099"},"10021":{"no":"10021","lng":"103.83838894560753","name":"Blk 3","lat":"1.27744837946643"},"10039":{"no":"10039","lng":"103.83636995885735","name":"Bef Hosp Dr","lat":"1.27734776750189"},"10041":{"no":"10041","lng":"103.83519065305671","name":"Aft Blair Rd","lat":"1.27605834770353"},"10049":{"no":"10049","lng":"103.83483786772155","name":"Aft Jln Bt Merah","lat":"1.27623302424393"},"10051":{"no":"10051","lng":"103.83214410914843","name":"Blk 149","lat":"1.2774116353284"},"10059":{"no":"10059","lng":"103.83275178077875","name":"Opp Blk 149","lat":"1.27739664167497"},"10061":{"no":"10061","lng":"103.82948638898173","name":"Blk 140","lat":"1.27860472196885"},"10069":{"no":"10069","lng":"103.83008250001669","name":"Opp Blk 140","lat":"1.27855472196877"},"10071":{"no":"10071","lng":"103.82638920754815","name":"Blk 111","lat":"1.28045309423663"},"10079":{"no":"10079","lng":"103.82708906887606","name":"Blk 201","lat":"1.2803950142786"},"10081":{"no":"10081","lng":"103.82241744338572","name":"Opp Blk 120","lat":"1.2822783541702"},"10089":{"no":"10089","lng":"103.82165660905856","name":"Blk 119","lat":"1.28292332245689"},"10091":{"no":"10091","lng":"103.81783962251122","name":"Bt Merah Town Ctr","lat":"1.28394108576437"},"10099":{"no":"10099","lng":"103.81765723225827","name":"Opp Bt Merah Town Ctr","lat":"1.28420923932422"},"10101":{"no":"10101","lng":"103.81374366011399","name":"SPRING S'pore Bldg","lat":"1.28502568134889"},"10109":{"no":"10109","lng":"103.81365537642607","name":"Opp SPRING S'pore Bldg","lat":"1.28531403163162"},"10111":{"no":"10111","lng":"103.80935410958449","name":"Opp Blk 28","lat":"1.28592835098556"},"10119":{"no":"10119","lng":"103.81122515087834","name":"Opp Pacific Tech Ctr","lat":"1.28598009010704"},"10121":{"no":"10121","lng":"103.82894111173319","name":"Blk 126 CP","lat":"1.28266111197257"},"10129":{"no":"10129","lng":"103.8285719444802","name":"Blk 121","lat":"1.28231999999009"},"10131":{"no":"10131","lng":"103.80686549059318","name":"Opp Blk 2","lat":"1.28619141382394"},"10139":{"no":"10139","lng":"103.8081000223439","name":"Blk 1","lat":"1.28635135443034"},"10141":{"no":"10141","lng":"103.83238179897589","name":"Blk 18","lat":"1.28583847140468"},"10149":{"no":"10149","lng":"103.83283384311112","name":"Blk 1","lat":"1.28606797463712"},"10151":{"no":"10151","lng":"103.8285292287095","name":"Ctrl Green Condo","lat":"1.28572048365401"},"10161":{"no":"10161","lng":"103.82668969231534","name":"Opp Tiong Bahru Plaza","lat":"1.28593135445772"},"10169":{"no":"10169","lng":"103.82748123930962","name":"Tiong Bahru Plaza","lat":"1.28599961406266"},"10171":{"no":"10171","lng":"103.82346004890803","name":"Henderson Pk","lat":"1.28736808047078"},"10179":{"no":"10179","lng":"103.82395833301354","name":"Tiong Bahru Pk","lat":"1.28722333302937"},"10181":{"no":"10181","lng":"103.8209448467392","name":"Bef Al-Rabitah Mque","lat":"1.28848771148124"},"10189":{"no":"10189","lng":"103.82183192865197","name":"Blk 104A CP","lat":"1.28858805222806"},"10191":{"no":"10191","lng":"103.81903121724014","name":"Blk 78","lat":"1.28860026020096"},"10199":{"no":"10199","lng":"103.81936618662205","name":"Delta Swim Cplx","lat":"1.28875723330649"},"10201":{"no":"10201","lng":"103.81662854691157","name":"Opp Redhill Stn","lat":"1.28928144532567"},"10209":{"no":"10209","lng":"103.81672885450702","name":"Redhill Stn","lat":"1.28954631749853"},"10211":{"no":"10211","lng":"103.81144166700754","name":"Porsche Ctr S'pore","lat":"1.29075499997303"},"10219":{"no":"10219","lng":"103.81191424883255","name":"Opp Motor Image","lat":"1.29089526651849"},"10221":{"no":"10221","lng":"103.83111793441608","name":"Ganges Ctr","lat":"1.29032906602668"},"10229":{"no":"10229","lng":"103.83178189529583","name":"Opp Harvest Mans","lat":"1.29052137840164"},"10231":{"no":"10231","lng":"103.82791431393503","name":"Opp Blk 79","lat":"1.2904161299801"},"10239":{"no":"10239","lng":"103.82866011286559","name":"Blk 79","lat":"1.29061878566593"},"10241":{"no":"10241","lng":"103.82362326803131","name":"Gan Eng Seng Sec Sch","lat":"1.2906166672167"},"10249":{"no":"10249","lng":"103.82407777797806","name":"Opp Gan Eng Seng Sec Sch","lat":"1.29088138899671"},"10261":{"no":"10261","lng":"103.82047232884216","name":"Delta Sports Hall","lat":"1.29090335842692"},"10269":{"no":"10269","lng":"103.82057583280772","name":"Opp Delta Sports Hall","lat":"1.29125331927458"},"10271":{"no":"10271","lng":"103.81757666701353","name":"Opp Tanglin View","lat":"1.29115999997607"},"10279":{"no":"10279","lng":"103.81757660887743","name":"Tanglin View","lat":"1.29151373164978"},"10281":{"no":"10281","lng":"103.81445166697797","name":"SIS Bldg","lat":"1.29153833298318"},"10289":{"no":"10289","lng":"103.81440639448375","name":"Opp SIS Bldg","lat":"1.2918699745378"},"10291":{"no":"10291","lng":"103.81065866068086","name":"Aft SM Motors Ctr","lat":"1.29215855273858"},"10299":{"no":"10299","lng":"103.81146486767658","name":"Opp SM Motors Ctr","lat":"1.29233498466278"},"10321":{"no":"10321","lng":"103.81587839882768","name":"Aft Margaret Dr","lat":"1.29428332949691"},"10329":{"no":"10329","lng":"103.81597460107542","name":"Crescent Girls' Sch","lat":"1.29364671283262"},"10331":{"no":"10331","lng":"103.81834423228645","name":"Bef Bt Merah Ctrl","lat":"1.28136306628839"},"10339":{"no":"10339","lng":"103.81857250844851","name":"Aft Bt Merah Ctrl","lat":"1.28115835063292"},"10341":{"no":"10341","lng":"103.82059301467888","name":"Henderson Sec Sch","lat":"1.28484639603431"},"10349":{"no":"10349","lng":"103.82104149555396","name":"Blk 116","lat":"1.2849833405097"},"10351":{"no":"10351","lng":"103.82204990181914","name":"Blk 96","lat":"1.28675501760897"},"10359":{"no":"10359","lng":"103.82259298997768","name":"Bet Blks 110/113","lat":"1.28723833324362"},"10361":{"no":"10361","lng":"103.82353025808791","name":"Cendex Ctr","lat":"1.28038092060065"},"10369":{"no":"10369","lng":"103.82387343933006","name":"Opp Cendex Ctr","lat":"1.28037471151153"},"10371":{"no":"10371","lng":"103.824502653383","name":"Blk 129","lat":"1.28365072319387"},"10379":{"no":"10379","lng":"103.82489520929732","name":"Blk 25B","lat":"1.28373603376667"},"10381":{"no":"10381","lng":"103.82559411728036","name":"Opp Blk 48","lat":"1.28906972186602"},"10389":{"no":"10389","lng":"103.82573455047122","name":"Blk 48","lat":"1.28875832991208"},"10391":{"no":"10391","lng":"103.83111005682466","name":"Opp Melati Blk 2","lat":"1.27619610041717"},"10399":{"no":"10399","lng":"103.83019454205221","name":"Melati Blk 2","lat":"1.27588166292683"},"10401":{"no":"10401","lng":"103.81167850401884","name":"Shriro Hse","lat":"1.28816729863"},"10409":{"no":"10409","lng":"103.81099317775703","name":"Blk 50","lat":"1.28788221830638"},"10411":{"no":"10411","lng":"103.81280840030111","name":"Opp Blk 53","lat":"1.28912979528004"},"10419":{"no":"10419","lng":"103.81257549749508","name":"Blk 52","lat":"1.28842024220748"},"10421":{"no":"10421","lng":"103.81503540991777","name":"Blk 63B","lat":"1.2889706156154"},"10429":{"no":"10429","lng":"103.81404805422201","name":"Blk 54","lat":"1.2892779060127"},"10431":{"no":"10431","lng":"103.81399869917512","name":"Bt Merah Skills Dev Ctr","lat":"1.28708384358883"},"10439":{"no":"10439","lng":"103.81418936580334","name":"Blk 55","lat":"1.28747956947939"},"10441":{"no":"10441","lng":"103.8116061687213","name":"Opp Blk 44","lat":"1.28656898930199"},"10449":{"no":"10449","lng":"103.81195378046979","name":"Blk 44","lat":"1.28666552495266"},"10451":{"no":"10451","lng":"103.8172559639682","name":"Opp Blk 71","lat":"1.28762380319765"},"10459":{"no":"10459","lng":"103.81639920301684","name":"Blk 72","lat":"1.28754723360397"},"10461":{"no":"10461","lng":"103.81169140516062","name":"Aft Margaret Dr","lat":"1.29680597432594"},"10469":{"no":"10469","lng":"103.81216918970023","name":"Bef Margaret Dr","lat":"1.29668400003303"},"10471":{"no":"10471","lng":"103.81468924528275","name":"Bef Tanglin Rd","lat":"1.29666888890258"},"10479":{"no":"10479","lng":"103.81547381025995","name":"Aft Tanglin Rd","lat":"1.29668100002552"},"10481":{"no":"10481","lng":"103.81797160113335","name":"Opp Blk 73","lat":"1.28784195484767"},"10489":{"no":"10489","lng":"103.81778388900163","name":"Blk 73","lat":"1.28811638897142"},"10501":{"no":"10501","lng":"103.82528065411316","name":"Blk 104","lat":"1.28105845355429"},"10519":{"no":"10519","lng":"103.82610949356565","name":"Blk 4","lat":"1.29172303079906"},"10589":{"no":"10589","lng":"103.83731290470817","name":"New Bridge Rd Ter","lat":"1.27834286449931"},"10599":{"no":"10599","lng":"103.80924997344987","name":"Opp Blk 36","lat":"1.28883435010664"},"10651":{"no":"10651","lng":"103.81547665017668","name":"Blk 161","lat":"1.28329993019059"},"10659":{"no":"10659","lng":"103.81472833301791","name":"Blk 1003","lat":"1.28362333298689"},"11009":{"no":"11009","lng":"103.78932237623975","name":"Ghim Moh Ter","lat":"1.3110673548964"},"11019":{"no":"11019","lng":"103.80565677295323","name":"Opp OG Fty","lat":"1.28679632523156"},"11021":{"no":"11021","lng":"103.80228694398484","name":"Aft Queenstown NPC HQ","lat":"1.28941805603102"},"11029":{"no":"11029","lng":"103.80202111098815","name":"Blk 166","lat":"1.29013472201419"},"11031":{"no":"11031","lng":"103.80045500000118","name":"Opp Queen's Cl","lat":"1.29119666696879"},"11039":{"no":"11039","lng":"103.79998683928974","name":"Blk 19","lat":"1.29245762862665"},"11041":{"no":"11041","lng":"103.79952333299494","name":"Aft C'wealth Dr","lat":"1.29624499998226"},"11049":{"no":"11049","lng":"103.79952549937242","name":"Opp Blessed Sacrament Ch","lat":"1.2954609366563"},"11051":{"no":"11051","lng":"103.8002979755481","name":"Opp Queenstown Polyclinic","lat":"1.29872166703909"},"11059":{"no":"11059","lng":"103.80097389222824","name":"Queenstown Polyclinic","lat":"1.29882892782979"},"11061":{"no":"11061","lng":"103.80118694402536","name":"Opp Queensway Sec Sch","lat":"1.30265777802206"},"11069":{"no":"11069","lng":"103.80161762237655","name":"Queensway Sec Sch","lat":"1.30236853162324"},"11071":{"no":"11071","lng":"103.80170944396954","name":"Blk 97","lat":"1.30621305601609"},"11079":{"no":"11079","lng":"103.80185250000659","name":"Opp Blk 95","lat":"1.305441389003"},"11081":{"no":"11081","lng":"103.80258027799627","name":"Viz Holland","lat":"1.30851972202313"},"11089":{"no":"11089","lng":"103.80334087354639","name":"Opp Holland Hill Lodge","lat":"1.30946135492693"},"11091":{"no":"11091","lng":"103.80367378215983","name":"Tulip Gdn","lat":"1.31219444050072"},"11099":{"no":"11099","lng":"103.80437666697586","name":"Opp Tulip Gdn","lat":"1.31305333300118"},"11101":{"no":"11101","lng":"103.80596012189226","name":"Farrer Rd Mkt","lat":"1.31614971080385"},"11109":{"no":"11109","lng":"103.80574305602846","name":"Spanish Village","lat":"1.31552472199926"},"11111":{"no":"11111","lng":"103.80771866952543","name":"Farrer Rd Stn","lat":"1.31780157259006"},"11119":{"no":"11119","lng":"103.80785606728587","name":"Opp Farrer Rd Stn","lat":"1.31747833490912"},"11131":{"no":"11131","lng":"103.80706694417339","name":"Queens Condo","lat":"1.2928849988829"},"11139":{"no":"11139","lng":"103.80744694841283","name":"Blk 53A CP","lat":"1.2931986108138"},"11141":{"no":"11141","lng":"103.80589167720838","name":"Queenstown Stn","lat":"1.29469265508026"},"11149":{"no":"11149","lng":"103.80596280094791","name":"Queenstown Stn","lat":"1.29506407111991"},"11151":{"no":"11151","lng":"103.80247592925552","name":"Blk 42","lat":"1.29863585845076"},"11159":{"no":"11159","lng":"103.80362656855579","name":"Aft Ch Of Our Saviour","lat":"1.29800440816386"},"11161":{"no":"11161","lng":"103.79839083302141","name":"C'wealth Stn","lat":"1.30213305598263"},"11169":{"no":"11169","lng":"103.79838166697326","name":"C'wealth Stn","lat":"1.30270500001823"},"11171":{"no":"11171","lng":"103.79479722196947","name":"Opp Blk 7B","lat":"1.30535666699303"},"11179":{"no":"11179","lng":"103.79427940117534","name":"Blk 8","lat":"1.30627521395682"},"11181":{"no":"11181","lng":"103.79227638896938","name":"Opp Blk 43","lat":"1.30722333300814"},"11189":{"no":"11189","lng":"103.79254222202354","name":"Blk 43","lat":"1.30740138898924"},"11191":{"no":"11191","lng":"103.7883731546267","name":"Buona Vista Stn","lat":"1.30801640815091"},"11199":{"no":"11199","lng":"103.78843145303215","name":"Blk 15","lat":"1.30837970735444"},"11201":{"no":"11201","lng":"103.81186453577433","name":"CSC Dempsey Clubhse","lat":"1.30692642897557"},"11209":{"no":"11209","lng":"103.81041205166566","name":"Opp Peirce Rd","lat":"1.30817280848743"},"11211":{"no":"11211","lng":"103.80939522851014","name":"Aft Peirce Rd","lat":"1.30838779885113"},"11219":{"no":"11219","lng":"103.80724260054822","name":"Great Eastern Mans","lat":"1.30988030201744"},"11221":{"no":"11221","lng":"103.80544413357042","name":"Lien Twrs","lat":"1.31002225322358"},"11229":{"no":"11229","lng":"103.80522542227166","name":"Les Jardins De Holland","lat":"1.31060065879064"},"11231":{"no":"11231","lng":"103.80119919777994","name":"Aft Estoril Mans","lat":"1.31115316310297"},"11239":{"no":"11239","lng":"103.80165517330278","name":"Fairlodge","lat":"1.31152857401616"},"11259":{"no":"11259","lng":"103.79274002213417","name":"Opp Blk 21","lat":"1.31119887945564"},"11261":{"no":"11261","lng":"103.79444621838488","name":"Holland Village","lat":"1.31223168432152"},"11269":{"no":"11269","lng":"103.79453796697418","name":"Opp Holland Village","lat":"1.31256112590195"},"11271":{"no":"11271","lng":"103.79008416699845","name":"Aft East Sussex Lane","lat":"1.31473444398294"},"11279":{"no":"11279","lng":"103.79069259768109","name":"Aft Coronation Rd West","lat":"1.31466878886978"},"11281":{"no":"11281","lng":"103.78852194399074","name":"Aft Tan Boon Chong Ave","lat":"1.31622694399746"},"11289":{"no":"11289","lng":"103.78904342517946","name":"Opp Tan Boon Chong Ave","lat":"1.31618891387774"},"11291":{"no":"11291","lng":"103.78592333300938","name":"Cold Storage Jelita","lat":"1.31792777802094"},"11299":{"no":"11299","lng":"103.78558843680226","name":"Opp Cold Storage Jelita","lat":"1.31826975603165"},"11301":{"no":"11301","lng":"103.78790067716272","name":"Hse No. 578","lat":"1.31803972093441"},"11309":{"no":"11309","lng":"103.78842993526158","name":"Hse No. 589","lat":"1.31862443850443"},"11311":{"no":"11311","lng":"103.78918694402276","name":"Hse No. 532","lat":"1.31989638898836"},"11319":{"no":"11319","lng":"103.78959970624805","name":"Opp Hse No. 516","lat":"1.3203063798654"},"11321":{"no":"11321","lng":"103.79010361098513","name":"Opp Regent Villa","lat":"1.32123138902898"},"11329":{"no":"11329","lng":"103.7909809400838","name":"Regent Villa","lat":"1.32236139685053"},"11331":{"no":"11331","lng":"103.79144668575621","name":"Opp Dynasty Gdn II","lat":"1.32320918827361"},"11339":{"no":"11339","lng":"103.79204722198944","name":"Dynasty Lodge","lat":"1.32398638897489"},"11341":{"no":"11341","lng":"103.79282790894261","name":"Garlick Ville","lat":"1.32551506183496"},"11349":{"no":"11349","lng":"103.79307388903305","name":"Opp Garlick Ville","lat":"1.32566611098306"},"11351":{"no":"11351","lng":"103.78945112775229","name":"Blk 13","lat":"1.30934571218561"},"11359":{"no":"11359","lng":"103.78968608347117","name":"Blk 12","lat":"1.30931022636473"},"11361":{"no":"11361","lng":"103.79058123542397","name":"Buona Vista Stn","lat":"1.30649698638726"},"11369":{"no":"11369","lng":"103.79084827741467","name":"Opp Buona Vista Stn","lat":"1.3063259638605"},"11379":{"no":"11379","lng":"103.79236323128613","name":"Buona Vista Ter","lat":"1.30917002463976"},"11381":{"no":"11381","lng":"103.79328294102335","name":"Blk 10A","lat":"1.30841137865065"},"11389":{"no":"11389","lng":"103.7929321687807","name":"Blk 46","lat":"1.30906501014268"},"11401":{"no":"11401","lng":"103.79507444402137","name":"Blk 12","lat":"1.30906722197973"},"11409":{"no":"11409","lng":"103.79432583301961","name":"Blk 9","lat":"1.3076441670056"},"11419":{"no":"11419","lng":"103.79604399202725","name":"Holland Village Stn","lat":"1.31102981378085"},"11429":{"no":"11429","lng":"103.7983633329984","name":"Opp Blk 115B","lat":"1.30454000002017"},"11439":{"no":"11439","lng":"103.80029777801455","name":"Blk 92","lat":"1.30606472198412"},"11441":{"no":"11441","lng":"103.79754055603178","name":"Blk 58","lat":"1.29780416697573"},"11449":{"no":"11449","lng":"103.79760333302292","name":"Blk 37B","lat":"1.29840527801842"},"11451":{"no":"11451","lng":"103.79707277801477","name":"Blk 72","lat":"1.30034972200468"},"11459":{"no":"11459","lng":"103.7968519439962","name":"Blk 50","lat":"1.30097055597804"},"11469":{"no":"11469","lng":"103.80188584326886","name":"Queensway Sec Sch","lat":"1.30113503392421"},"11471":{"no":"11471","lng":"103.80315156606572","name":"Opp The Fisherman Ch","lat":"1.29951892595663"},"11479":{"no":"11479","lng":"103.80371985837914","name":"The Fisherman Ch","lat":"1.29938075130292"},"11481":{"no":"11481","lng":"103.8060054035445","name":"Queenstown Lib","lat":"1.29811518922625"},"11489":{"no":"11489","lng":"103.80499720571189","name":"Opp Queenstown Lib","lat":"1.29845351507922"},"11491":{"no":"11491","lng":"103.8076364994003","name":"Opp Queenstown Pr Sch","lat":"1.29710202847016"},"11499":{"no":"11499","lng":"103.80788663334461","name":"Queenstown Pr Sch","lat":"1.29685053610951"},"11511":{"no":"11511","lng":"103.80251884462385","name":"Alexandra Hosp","lat":"1.2859468736223"},"11519":{"no":"11519","lng":"103.80334129425303","name":"Opp Queensway Shop Ctr","lat":"1.28665742231261"},"11521":{"no":"11521","lng":"103.80543003047167","name":"Anchorpoint","lat":"1.2885710102662"},"11529":{"no":"11529","lng":"103.8060909305284","name":"Bef IKEA Ind Bldg","lat":"1.28903120647732"},"11531":{"no":"11531","lng":"103.80753083302794","name":"Opp Lea Hin Hardware Fty","lat":"1.29108833302538"},"11539":{"no":"11539","lng":"103.80786180498694","name":"Lea Hin Hardware Fty","lat":"1.29117049549107"},"11541":{"no":"11541","lng":"103.80578500139798","name":"Opp Queens","lat":"1.29235984013148"},"11551":{"no":"11551","lng":"103.8040959835246","name":"Tiong Ghee Tp","lat":"1.29126703051517"},"11561":{"no":"11561","lng":"103.80247592924283","name":"Blk 166","lat":"1.29107396045212"},"11579":{"no":"11579","lng":"103.80303321252237","name":"Blk 158","lat":"1.29256489056942"},"11589":{"no":"11589","lng":"103.80400524995773","name":"Blk 157","lat":"1.292991881006"},"11599":{"no":"11599","lng":"103.80314888900556","name":"Blk 153","lat":"1.29420805600708"},"11609":{"no":"11609","lng":"103.80212194401808","name":"Blk 163","lat":"1.29188972202709"},"12021":{"no":"12021","lng":"103.78243055601493","name":"Bef Moonbeam Walk","lat":"1.31907638897016"},"12029":{"no":"12029","lng":"103.7824392109149","name":"Opp Moonbeam Walk","lat":"1.31958369390988"},"12031":{"no":"12031","lng":"103.7796285552172","name":"Pandan Valley Condo","lat":"1.3208008510991"},"12039":{"no":"12039","lng":"103.78018998386835","name":"Opp Pandan Valley Condo","lat":"1.32104526183447"},"12041":{"no":"12041","lng":"103.77653442120544","name":"Aft Pandan Valley","lat":"1.32049172685895"},"12049":{"no":"12049","lng":"103.77655888991401","name":"Opp Pandan Valley","lat":"1.32091131971837"},"12051":{"no":"12051","lng":"103.7750613105408","name":"Pine Gr Condo","lat":"1.3204289505949"},"12059":{"no":"12059","lng":"103.77515897833835","name":"Opp Pine Gr Condo","lat":"1.32072731097778"},"12061":{"no":"12061","lng":"103.77087339859139","name":"Blk 109","lat":"1.32178500189496"},"12069":{"no":"12069","lng":"103.77100287592896","name":"Opp Blk 109A","lat":"1.32130498052031"},"12071":{"no":"12071","lng":"103.77219388896603","name":"Blk 116","lat":"1.32402249998323"},"12079":{"no":"12079","lng":"103.77263094375739","name":"Opp Blk 116","lat":"1.32383187575187"},"12081":{"no":"12081","lng":"103.77561677964204","name":"Maju Camp","lat":"1.32672415183314"},"12089":{"no":"12089","lng":"103.77574833300092","name":"Opp Maju Camp","lat":"1.32652805602916"},"12091":{"no":"12091","lng":"103.7771471166854","name":"SIM HQ","lat":"1.32918315486756"},"12099":{"no":"12099","lng":"103.77671082410438","name":"Opp SIM HQ","lat":"1.32804027627752"},"12101":{"no":"12101","lng":"103.77768506316727","name":"Ngee Ann Poly","lat":"1.33243896358504"},"12109":{"no":"12109","lng":"103.77798585293453","name":"Opp Ngee Ann Poly","lat":"1.33111288044308"},"12111":{"no":"12111","lng":"103.77222980786665","name":"Bef Clementi Rd","lat":"1.3191179107649"},"12119":{"no":"12119","lng":"103.77223348946936","name":"Police KINS Trg Camp","lat":"1.31943420991875"},"12121":{"no":"12121","lng":"103.7871516670319","name":"Blk 7","lat":"1.31164833301814"},"12129":{"no":"12129","lng":"103.78732611099163","name":"Blk 3","lat":"1.31182111096862"},"12131":{"no":"12131","lng":"103.785061666981","name":"Aft Grove Rd","lat":"1.3141594439742"},"12139":{"no":"12139","lng":"103.78504157068625","name":"Aft Mt Sinai Lane","lat":"1.31453185933289"},"12141":{"no":"12141","lng":"103.78239154819083","name":"Opp Henry Pk Apts","lat":"1.31574389841394"},"12149":{"no":"12149","lng":"103.78266099158458","name":"Henry Pk Apts","lat":"1.31576900455367"},"12151":{"no":"12151","lng":"103.78127574919664","name":"Evian Condo","lat":"1.31865064467378"},"12169":{"no":"12169","lng":"103.77724170687915","name":"Pandan Valley","lat":"1.31916549240365"},"12179":{"no":"12179","lng":"103.7769949436126","name":"Montview","lat":"1.31679504687757"},"12189":{"no":"12189","lng":"103.78022402243116","name":"Bef Mt Sinai Dr","lat":"1.31642693680141"},"12199":{"no":"12199","lng":"103.77820622498255","name":"Opp Village Twr","lat":"1.31547998901343"},"12201":{"no":"12201","lng":"103.76399509585458","name":"Logishub @ Clementi","lat":"1.32670826856501"},"12209":{"no":"12209","lng":"103.76429968220569","name":"Opp Logishub @ Clementi","lat":"1.32653202760922"},"12211":{"no":"12211","lng":"103.78070712088581","name":"Bet Hse Nos.33/35","lat":"1.31721336095462"},"13011":{"no":"13011","lng":"103.81983822614549","name":"Opp S'pore Botanic Gdns","lat":"1.30634849184404"},"13019":{"no":"13019","lng":"103.81994401125625","name":"S'pore Botanic Gdns","lat":"1.30677490336828"},"13021":{"no":"13021","lng":"103.81430670816292","name":"Aft Min Of Foreign Affairs","lat":"1.30633972996805"},"13029":{"no":"13029","lng":"103.8145185880206","name":"Bef Tyersall Ave","lat":"1.30671783282361"},"13031":{"no":"13031","lng":"103.81707388901162","name":"Opp Chatsworth Rd","lat":"1.29912972200223"},"13039":{"no":"13039","lng":"103.81744265557978","name":"Bef Chatsworth Rd","lat":"1.29981572699945"},"13041":{"no":"13041","lng":"103.81967634723284","name":"Aft Rochalie Dr","lat":"1.30242834318416"},"13049":{"no":"13049","lng":"103.82045069624506","name":"Bef Rochalie Dr","lat":"1.30261671321463"},"13051":{"no":"13051","lng":"103.8263656209055","name":"Opp Valley Pt Condo","lat":"1.29334305906356"},"13059":{"no":"13059","lng":"103.82663492676832","name":"Valley Pt Condo","lat":"1.29328273601932"},"13062":{"no":"13062","lng":"103.82852554324063","name":"Mutiara View","lat":"1.2948495492402"},"13063":{"no":"13063","lng":"103.82954172608696","name":"Mutiara Crest","lat":"1.29544829339552"},"13069":{"no":"13069","lng":"103.82880805602646","name":"Valley Pk Condo","lat":"1.29488000002792"},"13071":{"no":"13071","lng":"103.8322512944371","name":"Opp ERC Inst","lat":"1.29636199316259"},"13079":{"no":"13079","lng":"103.83255861099337","name":"Aft ERC Inst","lat":"1.29616972198544"},"13081":{"no":"13081","lng":"103.83624277798825","name":"Airview Twr","lat":"1.2959113890106"},"13089":{"no":"13089","lng":"103.83604111103381","name":"The Morningside","lat":"1.29575111096804"},"13091":{"no":"13091","lng":"103.83937805601917","name":"Aft AA Ctr","lat":"1.29593138900491"},"13099":{"no":"13099","lng":"103.83961272081199","name":"Bef AA Ctr","lat":"1.29578024244395"},"13101":{"no":"13101","lng":"103.84231209757696","name":"Opp Mohd Sultan Rd","lat":"1.29414162678811"},"13109":{"no":"13109","lng":"103.84272416702719","name":"UE Sq","lat":"1.29350944398488"},"13119":{"no":"13119","lng":"103.83283853530904","name":"Opp Great World City","lat":"1.29362677394379"},"13121":{"no":"13121","lng":"103.8308377640795","name":"Opp Great World City","lat":"1.29409221679274"},"13139":{"no":"13139","lng":"103.83205533028763","name":"The Trillium","lat":"1.2950426189642"},"13141":{"no":"13141","lng":"103.82996320724997","name":"Aft Zion Full Gospel Ch","lat":"1.29745598928819"},"13159":{"no":"13159","lng":"103.83053183555204","name":"Bef Zion Full Gospel Ch","lat":"1.29796011528522"},"13169":{"no":"13169","lng":"103.82839289158527","name":"Grange 80 Condo","lat":"1.29910305180416"},"13171":{"no":"13171","lng":"103.82650703485064","name":"Lucky Twr","lat":"1.29906809120339"},"13179":{"no":"13179","lng":"103.82665250000115","name":"Opp Lucky Twr","lat":"1.29925749997453"},"13181":{"no":"13181","lng":"103.82403473005562","name":"Aft One Tree Hill","lat":"1.30023223661153"},"13189":{"no":"13189","lng":"103.82414749997376","name":"Bef One Tree Hill","lat":"1.30038166697497"},"13191":{"no":"13191","lng":"103.82987799248593","name":"Paterson Lodge","lat":"1.30266053145965"},"13199":{"no":"13199","lng":"103.82999232505492","name":"Opp Paterson Lodge","lat":"1.30229926867508"},"13201":{"no":"13201","lng":"103.82209559895128","name":"British High Comm","lat":"1.30453622259471"},"13209":{"no":"13209","lng":"103.82205605505206","name":"Opp British High Comm","lat":"1.3040310710651"},"13211":{"no":"13211","lng":"103.841095990069","name":"Aft Unity St","lat":"1.29241699362559"},"14009":{"no":"14009","lng":"103.81901469907409","name":"HarbourFront Int","lat":"1.26703502614245"},"14011":{"no":"14011","lng":"103.8255261109799","name":"Bef Mt Faber Lodge","lat":"1.26795444401606"},"14019":{"no":"14019","lng":"103.82571717446542","name":"Opp Mt Faber Lodge","lat":"1.2684889249437"},"14021":{"no":"14021","lng":"103.82478361101728","name":"Radin Mas Mque","lat":"1.27132972198996"},"14029":{"no":"14029","lng":"103.82418777803016","name":"Blk 105","lat":"1.27247333301883"},"14031":{"no":"14031","lng":"103.82306027800865","name":"St. Theresa's Convent","lat":"1.27624277802151"},"14039":{"no":"14039","lng":"103.82345826768822","name":"Opp St. Theresa's Convent","lat":"1.27663637861466"},"14041":{"no":"14041","lng":"103.81247079301698","name":"Blk 54","lat":"1.2732727805917"},"14049":{"no":"14049","lng":"103.81304231999674","name":"Opp Blk 55","lat":"1.27324166755337"},"14051":{"no":"14051","lng":"103.81507555599188","name":"Aft Telok Blangah Hts","lat":"1.27581500000367"},"14059":{"no":"14059","lng":"103.81514365492288","name":"Bef Telok Blangah Hts","lat":"1.27537485139506"},"14061":{"no":"14061","lng":"103.83862035734883","name":"Opp Former Railway Stn","lat":"1.27231269789239"},"14069":{"no":"14069","lng":"103.83694861102117","name":"Former Railway Stn","lat":"1.27261333297575"},"14071":{"no":"14071","lng":"103.8339025862589","name":"Keppel Workshop","lat":"1.27220342411953"},"14081":{"no":"14081","lng":"103.83061367871179","name":"Tg Pagar DP Blk F5","lat":"1.27067760623796"},"14089":{"no":"14089","lng":"103.829792773326","name":"Opp Tg Pagar DP Blk F5","lat":"1.27046005041763"},"14101":{"no":"14101","lng":"103.82825805600972","name":"Opp Keppel DP Blk 517","lat":"1.26837500002503"},"14109":{"no":"14109","lng":"103.82722490505579","name":"Keppel DP Blk 517","lat":"1.26804601553507"},"14119":{"no":"14119","lng":"103.8222827803663","name":"Opp VivoCity","lat":"1.26592360897281"},"14121":{"no":"14121","lng":"103.81925660621779","name":"HarbourFront Stn","lat":"1.26591350024271"},"14129":{"no":"14129","lng":"103.81977877391114","name":"HarbourFront Stn","lat":"1.26607869101924"},"14131":{"no":"14131","lng":"103.81675441150337","name":"Caribbean at Keppel Bay","lat":"1.26740130257465"},"14139":{"no":"14139","lng":"103.81546952380809","name":"Bef Seah Im Rd","lat":"1.2686352773503"},"14141":{"no":"14141","lng":"103.82211326846237","name":"VivoCity","lat":"1.26552421466644"},"14151":{"no":"14151","lng":"103.8129359412343","name":"Opp Chr CC Chapel","lat":"1.26964765905364"},"14159":{"no":"14159","lng":"103.81315419081787","name":"Bef Chr CC Chapel","lat":"1.26994046445496"},"14161":{"no":"14161","lng":"103.81009913005327","name":"Telok Blangah Stn","lat":"1.27075866533548"},"14169":{"no":"14169","lng":"103.80941810434497","name":"Opp Telok Blangah Stn","lat":"1.27118550385957"},"14171":{"no":"14171","lng":"103.80654857059398","name":"Opp Yeo's Bldg","lat":"1.27145959833005"},"14179":{"no":"14179","lng":"103.80630000533797","name":"Yeo's Bldg","lat":"1.27188454577735"},"14189":{"no":"14189","lng":"103.80398363214624","name":"Aft Alexandra Rd","lat":"1.27269303340787"},"14191":{"no":"14191","lng":"103.81211444400743","name":"Blk 104B","lat":"1.28121833300943"},"14199":{"no":"14199","lng":"103.81275056370772","name":"Blk 118","lat":"1.28131676735406"},"14201":{"no":"14201","lng":"103.80914683892263","name":"Blk 109B","lat":"1.28167307267242"},"14209":{"no":"14209","lng":"103.80958869712056","name":"Aft Hewlett Packard","lat":"1.28176397706369"},"14211":{"no":"14211","lng":"103.80521877469815","name":"ISS Intl Sch","lat":"1.28161168409316"},"14219":{"no":"14219","lng":"103.80684961252827","name":"Opp Blk 114","lat":"1.28218647936578"},"14221":{"no":"14221","lng":"103.82893371728431","name":"Opp St. Teresa's Ch","lat":"1.27359332247784"},"14229":{"no":"14229","lng":"103.82857888915174","name":"St. Teresa's Ch","lat":"1.27370670186653"},"14231":{"no":"14231","lng":"103.82667222202473","name":"Keppel DP Blk 519","lat":"1.27100999999332"},"14239":{"no":"14239","lng":"103.8271423936315","name":"Opp Keppel DP Blk 519","lat":"1.27178138152481"},"14241":{"no":"14241","lng":"103.8168725087535","name":"Opp Blk 1","lat":"1.27914353103301"},"14249":{"no":"14249","lng":"103.81732991211003","name":"Blk 1","lat":"1.27947405747082"},"14259":{"no":"14259","lng":"103.81865821941","name":"Blk 11","lat":"1.27784501068205"},"14269":{"no":"14269","lng":"103.81999451121168","name":"Blk 10","lat":"1.27758480623244"},"14271":{"no":"14271","lng":"103.81914854048932","name":"Al-Amin Mque","lat":"1.27568194286532"},"14279":{"no":"14279","lng":"103.81920892602811","name":"Blk 25","lat":"1.27591552267791"},"14281":{"no":"14281","lng":"103.81804377490617","name":"Opp Blk 11","lat":"1.27699671573899"},"14291":{"no":"14291","lng":"103.82132649422054","name":"Blk 27","lat":"1.27468440821038"},"14299":{"no":"14299","lng":"103.82127132943862","name":"Opp Blk 27","lat":"1.27488820445716"},"14309":{"no":"14309","lng":"103.82302593897191","name":"Blk 41","lat":"1.27128899958763"},"14319":{"no":"14319","lng":"103.82071832142381","name":"Blk 28","lat":"1.27340685178245"},"14329":{"no":"14329","lng":"103.8094536607413","name":"Blk 67","lat":"1.27434961469084"},"14331":{"no":"14331","lng":"103.8110680555484","name":"Aft Telok Blangah St 32","lat":"1.27694611110347"},"14339":{"no":"14339","lng":"103.81124504785828","name":"Bef Telok Blangah St 32","lat":"1.276660654539"},"14341":{"no":"14341","lng":"103.81347388887318","name":"Opp Blk 59","lat":"1.2759338888633"},"14349":{"no":"14349","lng":"103.81339813671549","name":"Blk 59","lat":"1.27579029839825"},"14351":{"no":"14351","lng":"103.81036111111034","name":"Blk 48","lat":"1.27275000000424"},"14359":{"no":"14359","lng":"103.81035027797056","name":"Blk 50","lat":"1.27289055599998"},"14369":{"no":"14369","lng":"103.80365927155157","name":"The Interlace","lat":"1.28153635758335"},"14379":{"no":"14379","lng":"103.82379361102515","name":"Blk 40","lat":"1.27243833303297"},"14381":{"no":"14381","lng":"103.82554290547176","name":"Blk 109","lat":"1.27413014152159"},"14389":{"no":"14389","lng":"103.82500895193466","name":"Opp Blk 109","lat":"1.27428160509375"},"14391":{"no":"14391","lng":"103.80858611110148","name":"Opp Blk 85","lat":"1.27790999999895"},"14399":{"no":"14399","lng":"103.80858552939208","name":"Blk 85","lat":"1.27763662023223"},"14401":{"no":"14401","lng":"103.80213873319381","name":"Opp The Furniture Warehse","lat":"1.27210663041272"},"14409":{"no":"14409","lng":"103.80170965440686","name":"Opp Blk 3B","lat":"1.27157492348947"},"14419":{"no":"14419","lng":"103.80101770558082","name":"CP A","lat":"1.26730338373448"},"14429":{"no":"14429","lng":"103.80419833334233","name":"CP B","lat":"1.26379833335358"},"14471":{"no":"14471","lng":"103.80664978771298","name":"Blk 114","lat":"1.28201169102423"},"14489":{"no":"14489","lng":"103.82170108549552","name":"Blk 36 Mkt/FC","lat":"1.2721852066614"},"14491":{"no":"14491","lng":"103.8079488888896","name":"Opp Telok Blangah Mkt/FC","lat":"1.27278805556375"},"14499":{"no":"14499","lng":"103.8078211111249","name":"Telok Blangah Mkt/FC","lat":"1.27291305557456"},"14519":{"no":"14519","lng":"103.82570322127442","name":"Resorts World Sentosa","lat":"1.25352193438281"},"15041":{"no":"15041","lng":"103.80185648483362","name":"NOL Bldg","lat":"1.27455320898942"},"15049":{"no":"15049","lng":"103.80216344738955","name":"Opp NOL Bldg","lat":"1.274590541032"},"15051":{"no":"15051","lng":"103.80248500000464","name":"Alexandra Pt","lat":"1.27718388886974"},"15059":{"no":"15059","lng":"103.80270111113056","name":"Opp Alexandra Pt","lat":"1.27686194443878"},"15071":{"no":"15071","lng":"103.78701416697068","name":"Buona Vista Gdns","lat":"1.28142472197061"},"15079":{"no":"15079","lng":"103.78681112596291","name":"Aft Lor Sarhad","lat":"1.28072420973475"},"15091":{"no":"15091","lng":"103.78781105381566","name":"Opp Natl Leadership Inst","lat":"1.28290732015735"},"15099":{"no":"15099","lng":"103.78789349372825","name":"Natl Leadership Inst","lat":"1.28305620100972"},"15101":{"no":"15101","lng":"103.78562083299963","name":"Opp LP 31","lat":"1.28617611097876"},"15109":{"no":"15109","lng":"103.78581066082835","name":"LP 30","lat":"1.28591970870508"},"15111":{"no":"15111","lng":"103.78484166701072","name":"LP 37","lat":"1.28676277798099"},"15119":{"no":"15119","lng":"103.78501111787651","name":"LP 36","lat":"1.28703802671813"},"15121":{"no":"15121","lng":"103.78373044277906","name":"LP 49","lat":"1.2889414210404"},"15129":{"no":"15129","lng":"103.78401870729115","name":"Opp LP 48","lat":"1.28916467783169"},"15131":{"no":"15131","lng":"103.78448903561744","name":"Kent Ridge Stn","lat":"1.29254343742409"},"15139":{"no":"15139","lng":"103.7845849999835","name":"Opp Kent Ridge Stn","lat":"1.29241000003008"},"15141":{"no":"15141","lng":"103.80095947823813","name":"Opp PSA Bldg","lat":"1.27275860463579"},"15149":{"no":"15149","lng":"103.80055546758587","name":"PSA Bldg","lat":"1.27341871854745"},"15151":{"no":"15151","lng":"103.79822208982421","name":"Bayanihan Ctr","lat":"1.27389192906939"},"15159":{"no":"15159","lng":"103.79839350407595","name":"Mapletree Business City","lat":"1.27426303773784"},"15161":{"no":"15161","lng":"103.79666055940478","name":"Pasir Panjang Ctr","lat":"1.27443806198132"},"15169":{"no":"15169","lng":"103.79673994290195","name":"Harbourside Ind Bldg 2","lat":"1.27481499269165"},"15181":{"no":"15181","lng":"103.78541356072027","name":"PSB S'pore","lat":"1.29108496444522"},"15189":{"no":"15189","lng":"103.78550255759306","name":"DNV Technology Ctr","lat":"1.29079779477822"},"15191":{"no":"15191","lng":"103.79263571257981","name":"Pasir Panjang Stn","lat":"1.27581227029734"},"15199":{"no":"15199","lng":"103.79318399639808","name":"Opp Currency Hse","lat":"1.27604240853686"},"15201":{"no":"15201","lng":"103.78970861437152","name":"Aft PSA Wharves G3","lat":"1.27680819120105"},"15209":{"no":"15209","lng":"103.79023432729963","name":"Opp PSA Wharves G3","lat":"1.27706561928684"},"15211":{"no":"15211","lng":"103.78642808592167","name":"Opp Pasir View Pk","lat":"1.27792442096507"},"15219":{"no":"15219","lng":"103.78701031206879","name":"Pasir View Pk","lat":"1.27818114088895"},"15221":{"no":"15221","lng":"103.78553833298272","name":"Redwood West","lat":"1.2794183329883"},"15229":{"no":"15229","lng":"103.78572727156029","name":"Opp Redwood West","lat":"1.27937638961898"},"16009":{"no":"16009","lng":"103.76988323197696","name":"Kent Ridge Ter","lat":"1.29425341056334"},"16011":{"no":"16011","lng":"103.78186930413443","name":"Opp Haw Par Villa Stn","lat":"1.28277766355314"},"16019":{"no":"16019","lng":"103.78217614858187","name":"Haw Par Villa Stn","lat":"1.28278078585184"},"16021":{"no":"16021","lng":"103.77981027693801","name":"Opp Gloria Man","lat":"1.28625793147796"},"16029":{"no":"16029","lng":"103.78022138902949","name":"Gloria Man","lat":"1.28608472200879"},"16031":{"no":"16031","lng":"103.77846479413628","name":"Opp S'pore Science Pk II","lat":"1.28800629048399"},"16039":{"no":"16039","lng":"103.77872029260048","name":"S'pore Science Pk II","lat":"1.28799020188116"},"16041":{"no":"16041","lng":"103.77689838408504","name":"Opp The Longhouse","lat":"1.28915398566994"},"16049":{"no":"16049","lng":"103.77738654614421","name":"Westvale","lat":"1.28913789650054"},"16051":{"no":"16051","lng":"103.77490282061994","name":"The Crystal Tabernacle Ch","lat":"1.28985118336786"},"16059":{"no":"16059","lng":"103.77534040721935","name":"Jamiyah Halfway Hse","lat":"1.28983223716523"},"16061":{"no":"16061","lng":"103.77356171611027","name":"Opp Heng Mui Keng Terr","lat":"1.29046257201356"},"16069":{"no":"16069","lng":"103.7731166669843","name":"Heng Mui Keng Terr","lat":"1.29082972200391"},"16071":{"no":"16071","lng":"103.77109438530917","name":"Opp Pasir Panjang PO","lat":"1.29128369274019"},"16079":{"no":"16079","lng":"103.77068722200303","name":"Bef Pasir Panjang PO","lat":"1.29151166702959"},"16081":{"no":"16081","lng":"103.76866138900287","name":"Aft Palm Green Condo","lat":"1.29195777797363"},"16089":{"no":"16089","lng":"103.76908420716119","name":"Aft Clementi Rd","lat":"1.29201138346787"},"16091":{"no":"16091","lng":"103.7792311110139","name":"Opp SIT Dover","lat":"1.29939666697351"},"16099":{"no":"16099","lng":"103.77815138886747","name":"SIT Dover","lat":"1.30061249997689"},"16101":{"no":"16101","lng":"103.77969239279669","name":"Inst Of Micro-Electronics","lat":"1.28923831874246"},"16109":{"no":"16109","lng":"103.77950843257454","name":"The Alpha","lat":"1.28911169277414"},"16111":{"no":"16111","lng":"103.7828311158184","name":"Aries","lat":"1.28700981956328"},"16119":{"no":"16119","lng":"103.78260551222012","name":"Teletech Pk","lat":"1.28697650703193"},"16121":{"no":"16121","lng":"103.78345136824991","name":"Galen","lat":"1.28651130049582"},"16131":{"no":"16131","lng":"103.76935201010454","name":"Opp Kent Ridge Ter","lat":"1.29487639088562"},"16139":{"no":"16139","lng":"103.76974861100446","name":"Bef Kent Ridge Ter","lat":"1.29537944399618"},"16141":{"no":"16141","lng":"103.76959523650599","name":"Tentera Diraja Mque","lat":"1.29786833526113"},"16149":{"no":"16149","lng":"103.76994027003138","name":"NUS Fac Of Architecture","lat":"1.29781833402646"},"16151":{"no":"16151","lng":"103.76993555602371","name":"The Japanese Pr Sch","lat":"1.30076138899694"},"16159":{"no":"16159","lng":"103.77017032679849","name":"NUS Fac Of Engrg","lat":"1.30060333385651"},"16161":{"no":"16161","lng":"103.77369416698464","name":"Museum","lat":"1.30107500001488"},"16169":{"no":"16169","lng":"103.77270416701658","name":"NUS Raffles Hall","lat":"1.30098333297992"},"16171":{"no":"16171","lng":"103.77438231319462","name":"Yusof Ishak Hse","lat":"1.29890150201437"},"16179":{"no":"16179","lng":"103.7741773272528","name":"Opp Yusof Ishak Hse","lat":"1.29898164227099"},"16181":{"no":"16181","lng":"103.77254247664239","name":"Ctrl Lib","lat":"1.29656572408064"},"16189":{"no":"16189","lng":"103.77284799997702","name":"Computer Ctr","lat":"1.29736100001827"},"16191":{"no":"16191","lng":"103.7703702141818","name":"Opp NUS Fac Of Architect","lat":"1.29614307417349"},"16199":{"no":"16199","lng":"103.77072917887465","name":"NUS Fac Of Design & Env","lat":"1.29639303583424"},"16201":{"no":"16201","lng":"103.78411889074361","name":"Barossa Gdns","lat":"1.28128100110278"},"16209":{"no":"16209","lng":"103.7840106664928","name":"Opp Barossa Gdns","lat":"1.28158795339781"},"16211":{"no":"16211","lng":"103.78357583299086","name":"Wharves Bldg","lat":"1.27941861098854"},"16219":{"no":"16219","lng":"103.78362361100768","name":"Opp Wharves Bldg","lat":"1.28015833301245"},"16221":{"no":"16221","lng":"103.78118424868649","name":"Opp Haw Par Villa Stn","lat":"1.28297585453544"},"16229":{"no":"16229","lng":"103.78159959377587","name":"Haw Par Villa Stn","lat":"1.2830090731877"},"16231":{"no":"16231","lng":"103.77852933168337","name":"Wholesale Ctr","lat":"1.28635947284714"},"16239":{"no":"16239","lng":"103.77893444397212","name":"Opp Wholesale Ctr","lat":"1.28643527800393"},"16241":{"no":"16241","lng":"103.77352611096799","name":"Bef West Coast Pk","lat":"1.28910305603308"},"16249":{"no":"16249","lng":"103.77400682988979","name":"Bef Wholesale Ctr","lat":"1.28928277099215"},"16891":{"no":"16891","lng":"103.76816139829276","name":"Opp Blk 420A","lat":"1.30982186660782"},"16991":{"no":"16991","lng":"103.76988582423061","name":"Opp Nan Hua High Sch","lat":"1.30777929773028"},"17009":{"no":"17009","lng":"103.76412225438476","name":"Clementi Int","lat":"1.31491572870629"},"17011":{"no":"17011","lng":"103.76687949307346","name":"Opp Varsity Pk","lat":"1.29385830063132"},"17019":{"no":"17019","lng":"103.76705176995323","name":"Varsity Pk","lat":"1.2937974792702"},"17021":{"no":"17021","lng":"103.76684546473278","name":"Waseda S Snr High Sch","lat":"1.2962010369817"},"17029":{"no":"17029","lng":"103.76710295331488","name":"Opp Waseda S Snr High Sch","lat":"1.29694570097768"},"17031":{"no":"17031","lng":"103.76567633935802","name":"Kent Ridge Sec Sch","lat":"1.30172305827699"},"17039":{"no":"17039","lng":"103.76606427132043","name":"Opp Kent Ridge Sec Sch","lat":"1.3015316464856"},"17041":{"no":"17041","lng":"103.76455953939507","name":"Blk 726 Clementi West Mkt","lat":"1.3042101570614"},"17049":{"no":"17049","lng":"103.76459821893782","name":"Blk 601","lat":"1.30470638200942"},"17051":{"no":"17051","lng":"103.76240145648879","name":"Blk 436","lat":"1.31726409983754"},"17059":{"no":"17059","lng":"103.76170111103328","name":"Regent Pk","lat":"1.31694333299923"},"17061":{"no":"17061","lng":"103.76180505768346","name":"Blk 701","lat":"1.30775834752765"},"17069":{"no":"17069","lng":"103.76214066046377","name":"Opp Blk 701","lat":"1.3077663717505"},"17071":{"no":"17071","lng":"103.76044433406533","name":"Blk 513","lat":"1.30891781912545"},"17079":{"no":"17079","lng":"103.75999360222924","name":"Blk 512","lat":"1.30968304242083"},"17081":{"no":"17081","lng":"103.76457888891022","name":"Aft West Coast Highway","lat":"1.299503055534"},"17091":{"no":"17091","lng":"103.77153500824593","name":"Aft Clementi Ave 1","lat":"1.3090313954164"},"17099":{"no":"17099","lng":"103.77170498369206","name":"Aft Dover Rd","lat":"1.30798165844336"},"17101":{"no":"17101","lng":"103.77179195235537","name":"Blk 352","lat":"1.31487473157856"},"17109":{"no":"17109","lng":"103.77208794065152","name":"Opp Blk 352","lat":"1.31522970861959"},"17111":{"no":"17111","lng":"103.77124639148465","name":"Blk 343","lat":"1.31779809827118"},"17119":{"no":"17119","lng":"103.7716863889831","name":"Opp Blk 343","lat":"1.31764138903218"},"17121":{"no":"17121","lng":"103.76944539352431","name":"Blk 610","lat":"1.30476410258543"},"17129":{"no":"17129","lng":"103.76985839745124","name":"Aft NUS High Sch","lat":"1.30514136653386"},"17131":{"no":"17131","lng":"103.76591111102081","name":"Clementi Flyover","lat":"1.3080413890204"},"17139":{"no":"17139","lng":"103.7658699915105","name":"Aft Clementi Swim Cplx","lat":"1.30903304650021"},"17141":{"no":"17141","lng":"103.76349999999258","name":"Clementi Stadium","lat":"1.3109950000148"},"17149":{"no":"17149","lng":"103.76346179699715","name":"Blk 426","lat":"1.31171515103681"},"17151":{"no":"17151","lng":"103.76960993525367","name":"Blk 410","lat":"1.31169519353522"},"17159":{"no":"17159","lng":"103.76970371664208","name":"Blk 365","lat":"1.31199859370264"},"17161":{"no":"17161","lng":"103.76685476875124","name":"Opp Blk 329","lat":"1.31240993603605"},"17169":{"no":"17169","lng":"103.76679666702314","name":"Blk 329","lat":"1.31284527799656"},"17171":{"no":"17171","lng":"103.76502698264449","name":"Clementi Stn","lat":"1.31497399268611"},"17179":{"no":"17179","lng":"103.76536000516927","name":"Clementi Stn","lat":"1.31528191560846"},"17181":{"no":"17181","lng":"103.7638854582427","name":"Opp Blk 317","lat":"1.31749570803723"},"17189":{"no":"17189","lng":"103.76406408827933","name":"Blk 317","lat":"1.31790502165515"},"17191":{"no":"17191","lng":"103.7698829655483","name":"NUS High Sch","lat":"1.30560805970136"},"17201":{"no":"17201","lng":"103.76734890374861","name":"Blk 308","lat":"1.32055715133061"},"17211":{"no":"17211","lng":"103.7658972301256","name":"Bet Blks 315/318","lat":"1.31828806129678"},"17219":{"no":"17219","lng":"103.76615861100824","name":"Blk 376","lat":"1.31820000002277"},"17221":{"no":"17221","lng":"103.76790022594946","name":"Blk 377","lat":"1.31735631283972"},"17229":{"no":"17229","lng":"103.76824211745355","name":"Blk 335","lat":"1.31728402491862"},"17239":{"no":"17239","lng":"103.7657941670033","name":"NTUC Fairprice","lat":"1.3123352780339"},"17241":{"no":"17241","lng":"103.76905503649127","name":"Blk 334","lat":"1.31519114798349"},"17249":{"no":"17249","lng":"103.7693124860245","name":"Blk 355","lat":"1.315056415495"},"17251":{"no":"17251","lng":"103.76727694400891","name":"Opp Blk 408","lat":"1.31098138900308"},"17259":{"no":"17259","lng":"103.76746074010758","name":"Blk 408","lat":"1.31092798217655"},"17269":{"no":"17269","lng":"103.76274177899958","name":"Blk 730","lat":"1.30513563161538"},"17279":{"no":"17279","lng":"103.76319287727786","name":"Blk 723","lat":"1.30292494255611"},"17289":{"no":"17289","lng":"103.7647147428673","name":"West Coast CC","lat":"1.30232494247638"},"17291":{"no":"17291","lng":"103.7696982607242","name":"West Coast Pk","lat":"1.29035140506061"},"17299":{"no":"17299","lng":"103.77005055601747","name":"Opp West Coast Pk","lat":"1.29060555603074"},"17301":{"no":"17301","lng":"103.76516694401265","name":"LP 111","lat":"1.29495361097608"},"17309":{"no":"17309","lng":"103.7652455560114","name":"LP 112","lat":"1.29537083302023"},"17311":{"no":"17311","lng":"103.76229444678326","name":"Emerson Process","lat":"1.30101698629873"},"17319":{"no":"17319","lng":"103.76229972130764","name":"Blk 716","lat":"1.30183915639239"},"17321":{"no":"17321","lng":"103.76035361097789","name":"Tien Wah Press Bldg","lat":"1.30483416696998"},"17329":{"no":"17329","lng":"103.76058388902574","name":"Blk 705","lat":"1.30505055600585"},"17331":{"no":"17331","lng":"103.75833111102287","name":"Opp Blk 518","lat":"1.30758833300768"},"17339":{"no":"17339","lng":"103.75850472198644","name":"Blk 518","lat":"1.30785722199073"},"17351":{"no":"17351","lng":"103.76576444402885","name":"Aft Clementi Rd","lat":"1.29358000003179"},"17359":{"no":"17359","lng":"103.76621750002619","name":"Bef Clementi Rd","lat":"1.29333722200355"},"17361":{"no":"17361","lng":"103.76346250000067","name":"Opp West Coast Link","lat":"1.29859750001329"},"17369":{"no":"17369","lng":"103.76386861099263","name":"Aft West Coast Link","lat":"1.29840583296856"},"17371":{"no":"17371","lng":"103.76356592222618","name":"Blk 201","lat":"1.32058194734278"},"17379":{"no":"17379","lng":"103.76389432891798","name":"Blk 304","lat":"1.32049089180327"},"17381":{"no":"17381","lng":"103.76686444402534","name":"West Bay Resort Condo","lat":"1.29907638900012"},"17389":{"no":"17389","lng":"103.76700194402241","name":"Opp West Bay Resort Condo","lat":"1.29908138901268"},"18011":{"no":"18011","lng":"103.8021033300325","name":"SP Jain","lat":"1.28087089714667"},"18019":{"no":"18019","lng":"103.80252305556165","name":"Opp SP Jain","lat":"1.28091055556275"},"18021":{"no":"18021","lng":"103.7889243029247","name":"Opp GEMPLUS","lat":"1.29645297711413"},"18029":{"no":"18029","lng":"103.78918045190079","name":"Tempco Mfg","lat":"1.29609811481527"},"18041":{"no":"18041","lng":"103.7931740283919","name":"Normanton Pk","lat":"1.28836025261771"},"18049":{"no":"18049","lng":"103.79208093037771","name":"Opp Normanton Pk","lat":"1.29018147748939"},"18051":{"no":"18051","lng":"103.7873441662514","name":"one-north Stn","lat":"1.29863776004531"},"18059":{"no":"18059","lng":"103.78720666698497","name":"Opp one-north Stn","lat":"1.29849138898115"},"18061":{"no":"18061","lng":"103.78738045694247","name":"Blk 71","lat":"1.29671588928647"},"18069":{"no":"18069","lng":"103.7875521182857","name":"Opp Blk 71","lat":"1.29649064143644"},"18071":{"no":"18071","lng":"103.7844750019296","name":"NUH","lat":"1.29540809825612"},"18079":{"no":"18079","lng":"103.78455389999202","name":"Opp NUH","lat":"1.2964817739742"},"18081":{"no":"18081","lng":"103.78733754155819","name":"Blk 55","lat":"1.29478519265463"},"18089":{"no":"18089","lng":"103.78757357729762","name":"S'pore Post","lat":"1.29480675923682"},"18099":{"no":"18099","lng":"103.78953616896972","name":"Ayer Rajah Bus Pk","lat":"1.29393169432811"},"18101":{"no":"18101","lng":"103.78636181453894","name":"PSB Science Pk Bldg","lat":"1.29282473128738"},"18109":{"no":"18109","lng":"103.78672599789039","name":"Opp PSB Science Pk Bldg","lat":"1.29403436577434"},"18111":{"no":"18111","lng":"103.78448416698873","name":"Fairfield Meth Pr Sch","lat":"1.30059305599352"},"18119":{"no":"18119","lng":"103.78466749999943","name":"Opp Fairfield Meth Pr Sch","lat":"1.30004638896912"},"18121":{"no":"18121","lng":"103.7854209482613","name":"Opp Ayer Rajah Ind Est","lat":"1.29751168042934"},"18129":{"no":"18129","lng":"103.78570767644749","name":"Ayer Rajah Ind Est","lat":"1.29776225378985"},"18131":{"no":"18131","lng":"103.7918327963467","name":"Science Pk","lat":"1.28950073498414"},"18141":{"no":"18141","lng":"103.78788091438994","name":"Aft Anglo-Chinese JC","lat":"1.30418279677397"},"18149":{"no":"18149","lng":"103.78724143833315","name":"Opp Anglo-Chinese JC","lat":"1.30253001117245"},"18151":{"no":"18151","lng":"103.78864286195989","name":"Opp one-north Stn","lat":"1.30051083054497"},"18159":{"no":"18159","lng":"103.78858368998314","name":"one-north Stn","lat":"1.3003468994065"},"18171":{"no":"18171","lng":"103.79412910351343","name":"Bef Weyhill Cl","lat":"1.29905478616662"},"18179":{"no":"18179","lng":"103.79304547568137","name":"Opp Weyhill Cl","lat":"1.29988107543841"},"18181":{"no":"18181","lng":"103.79369361976173","name":"Opp Tanglin Trust Sch","lat":"1.29714585347396"},"18189":{"no":"18189","lng":"103.79390316193482","name":"Tanglin Trust Sch","lat":"1.29839662957663"},"18191":{"no":"18191","lng":"103.79594388899301","name":"Bef Whitchurch Rd","lat":"1.29445611099682"},"18199":{"no":"18199","lng":"103.79407617440387","name":"Aft Whitchurch Rd","lat":"1.29544342826531"},"18201":{"no":"18201","lng":"103.7932287526945","name":"Mediapolis Campus","lat":"1.29498098725808"},"18211":{"no":"18211","lng":"103.79522263706237","name":"Infinite Studios","lat":"1.29161816867907"},"18221":{"no":"18221","lng":"103.78341318580553","name":"NUH","lat":"1.29630305719228"},"18239":{"no":"18239","lng":"103.78318782626637","name":"Opp NUH","lat":"1.29678943404486"},"18241":{"no":"18241","lng":"103.78707861052065","name":"PSB Science Pk Annex","lat":"1.29092304543197"},"18249":{"no":"18249","lng":"103.78712700002762","name":"Aft The Pasteur","lat":"1.29072399998624"},"18251":{"no":"18251","lng":"103.78845361097359","name":"Opp Reuters","lat":"1.29068138903164"},"18261":{"no":"18261","lng":"103.78933806183707","name":"Opp DSO Natl Laboratories","lat":"1.29015996757499"},"18269":{"no":"18269","lng":"103.78918694399599","name":"Bef Reuters","lat":"1.29010333301913"},"18271":{"no":"18271","lng":"103.78992778459765","name":"Blk 85","lat":"1.28840699998743"},"18279":{"no":"18279","lng":"103.78976622482348","name":"Opp Blk 85","lat":"1.28840636755823"},"18281":{"no":"18281","lng":"103.7912122154174","name":"The Rutherford","lat":"1.28752556916883"},"18289":{"no":"18289","lng":"103.7912059790003","name":"Opp The Rutherford","lat":"1.28738105702672"},"18301":{"no":"18301","lng":"103.78111972198647","name":"Lim Seng Tjoe Bldg (LT 27)","lat":"1.29741138896949"},"18309":{"no":"18309","lng":"103.78134198615086","name":"Blk S17","lat":"1.29752011664987"},"18311":{"no":"18311","lng":"103.77792133383952","name":"Blk S12","lat":"1.29743814797617"},"18319":{"no":"18319","lng":"103.77813111102236","name":"Opp University Hall","lat":"1.29752638901257"},"18321":{"no":"18321","lng":"103.77561916702605","name":"Opp University Health Ctr","lat":"1.29879333297449"},"18329":{"no":"18329","lng":"103.77611416701255","name":"University Health Ctr","lat":"1.2989244439988"},"18331":{"no":"18331","lng":"103.78489139998855","name":"Kent Ridge Stn","lat":"1.2937072200211"},"18339":{"no":"18339","lng":"103.78507910002646","name":"Opp Kent Ridge Stn","lat":"1.29379302903228"},"19011":{"no":"19011","lng":"103.78423666696615","name":"Blk 19A CP","lat":"1.30781638901709"},"19019":{"no":"19019","lng":"103.78475916699466","name":"Opp Blk 19A CP","lat":"1.30807305598128"},"19021":{"no":"19021","lng":"103.7812018067838","name":"SP SMA","lat":"1.30965490194051"},"19029":{"no":"19029","lng":"103.78201879388226","name":"Opp SP SMA","lat":"1.3095609201372"},"19031":{"no":"19031","lng":"103.77838361113201","name":"Dover Stn","lat":"1.31123416666912"},"19039":{"no":"19039","lng":"103.77870175147666","name":"Dover Stn","lat":"1.31168308048003"},"19041":{"no":"19041","lng":"103.77552750001337","name":"Opp Sch Of Science & Tech","lat":"1.31235972197855"},"19049":{"no":"19049","lng":"103.77479215922537","name":"Sch Of Science & Tech","lat":"1.31266302174215"},"19051":{"no":"19051","lng":"103.77392333299538","name":"New Town Sec Sch","lat":"1.30896444398008"},"19059":{"no":"19059","lng":"103.7727225000061","name":"University Town","lat":"1.30894500001531"},"19061":{"no":"19061","lng":"103.77782122462926","name":"Ayer Rajah Telecoms","lat":"1.30752442673366"},"19069":{"no":"19069","lng":"103.77671170466877","name":"Opp Ayer Rajah Telecoms","lat":"1.30778758326419"},"19071":{"no":"19071","lng":"103.78108305597279","name":"Opp United World College","lat":"1.30515500002931"},"19079":{"no":"19079","lng":"103.78012972199127","name":"Bef Dover Ct Prep Sch","lat":"1.30610305600543"},"19081":{"no":"19081","lng":"103.78282472199413","name":"Opp ACS Boarding Sch","lat":"1.30256972202724"},"19089":{"no":"19089","lng":"103.78184388900041","name":"United World College","lat":"1.30370305599194"},"19091":{"no":"19091","lng":"103.78208222199827","name":"S'pore Poly","lat":"1.30739277801307"},"19099":{"no":"19099","lng":"103.78193020817693","name":"Opp S'pore Poly","lat":"1.30695928303545"},"20011":{"no":"20011","lng":"103.76128731220228","name":"Blk 506","lat":"1.31308624553797"},"20019":{"no":"20019","lng":"103.7615108330155","name":"Blk 431","lat":"1.31357611099308"},"20021":{"no":"20021","lng":"103.7579229047191","name":"Hong Leong Shop Ctr","lat":"1.31668904312349"},"20029":{"no":"20029","lng":"103.7576126776852","name":"Opp Hong Leong Shop Ctr","lat":"1.31776998005658"},"20031":{"no":"20031","lng":"103.75464677812963","name":"The Infiniti","lat":"1.32055987103977"},"20039":{"no":"20039","lng":"103.75471510655738","name":"Opp The Infiniti","lat":"1.32102499760642"},"20051":{"no":"20051","lng":"103.74754428861822","name":"Cycle & Carriage","lat":"1.32258708167298"},"20059":{"no":"20059","lng":"103.74769351004639","name":"Opp Cycle & Carriage","lat":"1.32332108750232"},"20061":{"no":"20061","lng":"103.74298566424717","name":"Aft Jurong Town Hall Rd","lat":"1.32380614051658"},"20069":{"no":"20069","lng":"103.74418793943124","name":"Bef Jurong Town Hall Rd","lat":"1.32405636523113"},"20081":{"no":"20081","lng":"103.73879228035435","name":"Carrier S'pore","lat":"1.32660472912447"},"20089":{"no":"20089","lng":"103.7392229529496","name":"Opp Carrier S'pore","lat":"1.32702967705527"},"20101":{"no":"20101","lng":"103.76220142136133","name":"Nan Hua Pr Sch","lat":"1.319937141919"},"20109":{"no":"20109","lng":"103.76206999856427","name":"Blk 203","lat":"1.32085220079341"},"20121":{"no":"20121","lng":"103.73707999997312","name":"Opp Blk 51","lat":"1.32023972200054"},"20129":{"no":"20129","lng":"103.73754105423453","name":"Bet Blks 50/51","lat":"1.32034555007728"},"20131":{"no":"20131","lng":"103.7518511517015","name":"S'pore Food Industries Bldg","lat":"1.3155936163792"},"20139":{"no":"20139","lng":"103.75204376675156","name":"Opp Angliss Bldg","lat":"1.31584166892255"},"20141":{"no":"20141","lng":"103.7487710528033","name":"Opp Blk 408","lat":"1.31771999750607"},"20149":{"no":"20149","lng":"103.74897266925451","name":"Blk 408","lat":"1.31795969674094"},"20151":{"no":"20151","lng":"103.74631047251557","name":"Opp Blk 411","lat":"1.31829668687275"},"20159":{"no":"20159","lng":"103.74640166581365","name":"Blk 411","lat":"1.31851137522994"},"20161":{"no":"20161","lng":"103.74213695526599","name":"Opp Blks 34/35","lat":"1.31915476642967"},"20169":{"no":"20169","lng":"103.74251246450982","name":"Blk 35","lat":"1.31928347830225"},"20171":{"no":"20171","lng":"103.73984434693502","name":"Opp Blk 47","lat":"1.31967681449311"},"20179":{"no":"20179","lng":"103.73910069465363","name":"Aft Teban Gdns Rd","lat":"1.32000211967899"},"20181":{"no":"20181","lng":"103.74745845796298","name":"Ayer Rajah CC","lat":"1.32048478912567"},"20189":{"no":"20189","lng":"103.74727299945995","name":"Opp Ayer Rajah CC","lat":"1.32030501410074"},"20191":{"no":"20191","lng":"103.74845638901051","name":"Blk 407","lat":"1.31924166701026"},"20199":{"no":"20199","lng":"103.74819972197395","name":"Blk 410","lat":"1.31908111097886"},"20201":{"no":"20201","lng":"103.74340527799251","name":"Teban Gdn PO","lat":"1.32127611097845"},"20209":{"no":"20209","lng":"103.7440744439939","name":"Bef Jurong Town Hall Rd","lat":"1.32043333301332"},"20211":{"no":"20211","lng":"103.74184000241928","name":"Blk 41","lat":"1.32177193921987"},"20219":{"no":"20219","lng":"103.74143326706027","name":"Opp Blk 41","lat":"1.32205689998871"},"20231":{"no":"20231","lng":"103.7394439595661","name":"Bef Hasanah Mque","lat":"1.32234407286907"},"20239":{"no":"20239","lng":"103.73947011845992","name":"Aft Hasanah Mque","lat":"1.32246879634748"},"20241":{"no":"20241","lng":"103.73638362986378","name":"Opp Blk 51","lat":"1.32116277513743"},"20249":{"no":"20249","lng":"103.73670359829424","name":"Blk 54","lat":"1.32162000001571"},"20251":{"no":"20251","lng":"103.74447102076279","name":"Bef Teban Gdns Rd","lat":"1.31975500989852"},"20259":{"no":"20259","lng":"103.74477002532701","name":"C'wealth Sec Sch","lat":"1.31962187605788"},"20261":{"no":"20261","lng":"103.74546423225033","name":"Aft Pandan Gdns","lat":"1.3215997308483"},"20269":{"no":"20269","lng":"103.74580944947768","name":"Bef Pandan Gdns","lat":"1.32151780618055"},"20271":{"no":"20271","lng":"103.74550887325397","name":"Opp German Ctr","lat":"1.32527553308365"},"20281":{"no":"20281","lng":"103.75484214400765","name":"Opp The Japanese Sec Sch","lat":"1.31234219524906"},"20289":{"no":"20289","lng":"103.75503415636196","name":"The Japanese Sec Sch","lat":"1.31248801817062"},"20291":{"no":"20291","lng":"103.75771430804498","name":"Tanglin Sec Sch","lat":"1.31095062259154"},"20299":{"no":"20299","lng":"103.75857544044081","name":"Opp Tanglin Sec Sch","lat":"1.3109280417106"},"20309":{"no":"20309","lng":"103.75403766163392","name":"Blk 19","lat":"1.31062303116794"},"20319":{"no":"20319","lng":"103.75284421307401","name":"Blk 24","lat":"1.31259468493848"},"20329":{"no":"20329","lng":"103.75102066090028","name":"S'pore Food Ind","lat":"1.31503304622752"},"20331":{"no":"20331","lng":"103.74926333296754","name":"Vejoil Pte Ltd","lat":"1.31329138901596"},"20341":{"no":"20341","lng":"103.75047333297755","name":"Pan Tech Ind Cplx","lat":"1.31186472196722"},"21011":{"no":"21011","lng":"103.72866849877529","name":"Aft Jurong Lake","lat":"1.32534328766029"},"21019":{"no":"21019","lng":"103.72703317988619","name":"Aft Yuan Ching Rd","lat":"1.32554867828642"},"21021":{"no":"21021","lng":"103.72379008890384","name":"Bef Jurong Port Rd","lat":"1.32419322170223"},"21029":{"no":"21029","lng":"103.72167144503253","name":"Aft Corporation Pl","lat":"1.32431513164759"},"21041":{"no":"21041","lng":"103.72012027797446","name":"Aft Jln Terusan","lat":"1.3209197220107"},"21049":{"no":"21049","lng":"103.72024520956326","name":"Bef Jln Terusan","lat":"1.32107250538852"},"21069":{"no":"21069","lng":"103.7191852779968","name":"Bef Jln Tepong","lat":"1.31237305598007"},"21071":{"no":"21071","lng":"103.72226742161243","name":"Jurong Abattoir","lat":"1.31394221438857"},"21079":{"no":"21079","lng":"103.72279763377816","name":"Opp Jurong Abattoir","lat":"1.31342751032359"},"21089":{"no":"21089","lng":"103.72296452520035","name":"Bef Jln Buroh","lat":"1.31206487520147"},"21099":{"no":"21099","lng":"103.71110346092364","name":"Jurong Island Checkpt","lat":"1.31014377264327"},"21109":{"no":"21109","lng":"103.72109770773132","name":"Ctrl Fish Proc Fty","lat":"1.31100299869144"},"21111":{"no":"21111","lng":"103.71238327744312","name":"Aft Jurong Pier Rd","lat":"1.31442640542243"},"21119":{"no":"21119","lng":"103.71201936489673","name":"Bef Jurong Pier Rd","lat":"1.31397291780129"},"21121":{"no":"21121","lng":"103.71483206750459","name":"SPC Svc Stn","lat":"1.3145962153906"},"21129":{"no":"21129","lng":"103.71482897871087","name":"Opp SPC Svc Stn","lat":"1.31421980722852"},"21131":{"no":"21131","lng":"103.71799361097378","name":"Bef Jurong Port Rd","lat":"1.31470833302608"},"21139":{"no":"21139","lng":"103.71846563037732","name":"Aft Jurong Port Rd","lat":"1.31433044660166"},"21141":{"no":"21141","lng":"103.71957368500223","name":"Aft Jln Buroh","lat":"1.31517431113868"},"21149":{"no":"21149","lng":"103.71987462044102","name":"Jurong Port Workshops","lat":"1.31564736437783"},"21151":{"no":"21151","lng":"103.71988944330612","name":"CWT Distripark","lat":"1.3169920318205"},"21159":{"no":"21159","lng":"103.72042922086165","name":"Sin Soon Huat","lat":"1.31868562417111"},"21161":{"no":"21161","lng":"103.7127413228723","name":"Blk 220","lat":"1.35043949411648"},"21169":{"no":"21169","lng":"103.71275812568066","name":"Jurong JC","lat":"1.35074356093462"},"21171":{"no":"21171","lng":"103.71906611098208","name":"Opp Corporation Pl","lat":"1.3258163890121"},"21179":{"no":"21179","lng":"103.71929527796603","name":"Corporation Pl","lat":"1.32586166697514"},"21181":{"no":"21181","lng":"103.72100725398151","name":"Opp Blk 5","lat":"1.3302374752438"},"21189":{"no":"21189","lng":"103.72122294249655","name":"Blk 5","lat":"1.33026046590704"},"21191":{"no":"21191","lng":"103.72044541450344","name":"Jurong Stadium","lat":"1.33290982216515"},"21199":{"no":"21199","lng":"103.72051292839538","name":"Opp Jurong Stadium","lat":"1.333309472028"},"21201":{"no":"21201","lng":"103.71778639139953","name":"Sime Rengo Packaging Ltd","lat":"1.33683396424463"},"21209":{"no":"21209","lng":"103.71805599895127","name":"Opp Sime Rengo Packaging Ltd","lat":"1.33687648564633"},"21211":{"no":"21211","lng":"103.71606833298439","name":"Opp Lakepoint Condo","lat":"1.34004972199531"},"21219":{"no":"21219","lng":"103.71625930906035","name":"Lakepoint Condo","lat":"1.34010356133429"},"21229":{"no":"21229","lng":"103.71602021559848","name":"Opp S'pore Aerospace Mfg","lat":"1.34200346086893"},"21231":{"no":"21231","lng":"103.71599040338819","name":"Blk 203","lat":"1.34359535075913"},"21239":{"no":"21239","lng":"103.71633035405124","name":"Opp Blk 203","lat":"1.34450482589547"},"21241":{"no":"21241","lng":"103.71235425312759","name":"Blk 220","lat":"1.34973665190679"},"21249":{"no":"21249","lng":"103.71249318123603","name":"Blk 213","lat":"1.34958421982025"},"21251":{"no":"21251","lng":"103.71034741400833","name":"Sime Darby","lat":"1.33624121368399"},"21259":{"no":"21259","lng":"103.71043700168366","name":"Opp Sime Darby","lat":"1.33604134949327"},"21261":{"no":"21261","lng":"103.71025085451481","name":"Bef Smithkline","lat":"1.33393514008105"},"21269":{"no":"21269","lng":"103.71049761773749","name":"Unit 53","lat":"1.33418183646412"},"21271":{"no":"21271","lng":"103.71947315443572","name":"Opp Assyakirin Mque","lat":"1.33465896770641"},"21279":{"no":"21279","lng":"103.71952517818409","name":"Assyakirin Mque","lat":"1.33491282590378"},"21291":{"no":"21291","lng":"103.70943351671639","name":"Opp Bilcon Ind","lat":"1.31585422996408"},"21299":{"no":"21299","lng":"103.70994575591939","name":"Aft Bilcon Ind","lat":"1.31587034933081"},"21301":{"no":"21301","lng":"103.70997054139839","name":"Opp Jln Pesawat","lat":"1.31849721492889"},"21309":{"no":"21309","lng":"103.71054697877872","name":"Aft Jln Pesawat","lat":"1.3191903081711"},"21311":{"no":"21311","lng":"103.70956380845345","name":"Bef Tractor Rd","lat":"1.32320514106483"},"21319":{"no":"21319","lng":"103.70980422080449","name":"Opp Tractor Rd","lat":"1.32377340235344"},"21321":{"no":"21321","lng":"103.70885429370763","name":"BRC Weld Mesh Fty","lat":"1.32624055798556"},"21329":{"no":"21329","lng":"103.70901792785014","name":"Opp BRC Weld Mesh Fty","lat":"1.32691548284142"},"21331":{"no":"21331","lng":"103.70796785261548","name":"Opp Premier Milk Pte Ltd","lat":"1.33029049207675"},"21339":{"no":"21339","lng":"103.70832322685169","name":"Premier Milk Pte Ltd","lat":"1.33042465634522"},"21341":{"no":"21341","lng":"103.70895825573741","name":"Opp Beecham Pte Ltd","lat":"1.33517345758852"},"21349":{"no":"21349","lng":"103.70924473268514","name":"Beecham Pte Ltd","lat":"1.33506459808859"},"21351":{"no":"21351","lng":"103.70956429008974","name":"Opp Chartered Ind","lat":"1.33882138642125"},"21359":{"no":"21359","lng":"103.7099597309989","name":"Chartered Ind","lat":"1.33867010260834"},"21361":{"no":"21361","lng":"103.70767181671128","name":"Blk 695","lat":"1.34302323304896"},"21369":{"no":"21369","lng":"103.70800310705765","name":"Opp Blk 695","lat":"1.34309123717886"},"21371":{"no":"21371","lng":"103.70617873626036","name":"Blk 680C","lat":"1.34522722613512"},"21379":{"no":"21379","lng":"103.70648912988919","name":"Blk 263","lat":"1.34534855216089"},"21381":{"no":"21381","lng":"103.7085556805549","name":"St. Joseph's Home","lat":"1.34961226988408"},"21389":{"no":"21389","lng":"103.70901404485805","name":"Opp St. Joseph's Home","lat":"1.34948394210161"},"21391":{"no":"21391","lng":"103.70847936082643","name":"River Valley High Sch","lat":"1.34485064221938"},"21399":{"no":"21399","lng":"103.70805985100185","name":"Opp River Valley High Sch","lat":"1.3448140795943"},"21409":{"no":"21409","lng":"103.71207059648545","name":"Blk 191","lat":"1.34338969264048"},"21411":{"no":"21411","lng":"103.71033048575686","name":"Opp Blk 188","lat":"1.34393270141852"},"21419":{"no":"21419","lng":"103.71057645840757","name":"Blk 188","lat":"1.34388060681347"},"21421":{"no":"21421","lng":"103.71032595632526","name":"Blk 176","lat":"1.34720307776277"},"21429":{"no":"21429","lng":"103.71059149459593","name":"Blk 185","lat":"1.34740203306581"},"21431":{"no":"21431","lng":"103.71241055602675","name":"Blk 210","lat":"1.34765638897246"},"21439":{"no":"21439","lng":"103.71165888901649","name":"Boon Lay CC","lat":"1.34842277796612"},"21441":{"no":"21441","lng":"103.71326229185901","name":"Blk 207","lat":"1.34638242521451"},"21449":{"no":"21449","lng":"103.71306138901696","name":"Boon Lay Shop Ctr","lat":"1.34639805597018"},"21451":{"no":"21451","lng":"103.71473000001441","name":"Blk 206","lat":"1.34524833302487"},"21459":{"no":"21459","lng":"103.71491332975407","name":"Blk 209","lat":"1.3455804550235"},"21461":{"no":"21461","lng":"103.71799361099863","name":"Bef Lor Tukang Lima","lat":"1.32731972199567"},"21469":{"no":"21469","lng":"103.71808527797025","name":"Bef Chia Ping Rd","lat":"1.32747500002724"},"21471":{"no":"21471","lng":"103.71542666702132","name":"Aft Lor Tukang Empat","lat":"1.32673138898791"},"21479":{"no":"21479","lng":"103.71570166699784","name":"Hup Leck Heavy Equipment","lat":"1.3269180560083"},"21481":{"no":"21481","lng":"103.71208836146995","name":"Bef Lor Tukang Dua","lat":"1.32600145997044"},"21489":{"no":"21489","lng":"103.71265433258445","name":"Aft Ray Lee","lat":"1.32627839733404"},"21491":{"no":"21491","lng":"103.71082676692178","name":"Bef Boon Lay Way","lat":"1.3268635454851"},"21499":{"no":"21499","lng":"103.71102434826084","name":"Bef Jln Tukang","lat":"1.3265554895957"},"21501":{"no":"21501","lng":"103.71000208357827","name":"Premier Milk Pte Ltd","lat":"1.3304277146486"},"21509":{"no":"21509","lng":"103.70998723220183","name":"Opp Meiji Seika","lat":"1.33115639068272"},"21511":{"no":"21511","lng":"103.71107697488075","name":"Opp Amoy Canning","lat":"1.3331199693958"},"21519":{"no":"21519","lng":"103.71129155158583","name":"Amoy Canning","lat":"1.33295908040191"},"21521":{"no":"21521","lng":"103.71458530428906","name":"PB Packaging Systems","lat":"1.33413893275864"},"21529":{"no":"21529","lng":"103.71509707566638","name":"Opp Grandluxe","lat":"1.3340830392462"},"21531":{"no":"21531","lng":"103.71634483335832","name":"Clariant S'pore","lat":"1.33187576098508"},"21539":{"no":"21539","lng":"103.71633089417061","name":"Opp Kaily Packaging","lat":"1.33136152392518"},"21541":{"no":"21541","lng":"103.71986360869532","name":"Jurong Town Swim Cplx","lat":"1.33138075779669"},"21549":{"no":"21549","lng":"103.71899585412747","name":"Automotive Technology","lat":"1.33088280586201"},"21551":{"no":"21551","lng":"103.7209862100987","name":"Blk 151","lat":"1.3266610431866"},"21559":{"no":"21559","lng":"103.72063909698713","name":"CISCO Recall","lat":"1.326626598883"},"21561":{"no":"21561","lng":"103.72274321247575","name":"Blk 158","lat":"1.32889315236799"},"21569":{"no":"21569","lng":"103.72289813113439","name":"Opp Blk 158","lat":"1.32857203912272"},"21571":{"no":"21571","lng":"103.72307005592994","name":"Opp Jurong Sec Sch","lat":"1.33056719470166"},"21579":{"no":"21579","lng":"103.72318086110512","name":"Jurong Sec Sch","lat":"1.33013472279057"},"21581":{"no":"21581","lng":"103.72328639029729","name":"Blk 65","lat":"1.33243350969467"},"21589":{"no":"21589","lng":"103.72345805167676","name":"Blk 103","lat":"1.33246568746472"},"21591":{"no":"21591","lng":"103.72242808341083","name":"Opp Blk 117","lat":"1.33476103645994"},"21599":{"no":"21599","lng":"103.72268493639599","name":"Blk 117","lat":"1.33468356164521"},"21601":{"no":"21601","lng":"103.72109770581518","name":"Blk 357","lat":"1.33727029608815"},"21609":{"no":"21609","lng":"103.72102625466782","name":"Opp Blk 364","lat":"1.33775166774993"},"21611":{"no":"21611","lng":"103.71931958855112","name":"Blk 367","lat":"1.3383643422738"},"21619":{"no":"21619","lng":"103.71816213921478","name":"Aft Corporation Rd","lat":"1.33793509893342"},"21621":{"no":"21621","lng":"103.72205929003123","name":"Blk 354","lat":"1.3392149977089"},"21629":{"no":"21629","lng":"103.7227567243868","name":"Blk 334","lat":"1.33954476976732"},"21631":{"no":"21631","lng":"103.72493610114242","name":"Opp Japanese Gdn","lat":"1.33363626085559"},"21639":{"no":"21639","lng":"103.72511638897618","name":"Japanese Gdn","lat":"1.33378861099344"},"21641":{"no":"21641","lng":"103.7250086693193","name":"Opp Lakeside Apt","lat":"1.3363012622323"},"21649":{"no":"21649","lng":"103.72517977728532","name":"Lakeside Apt","lat":"1.33670886560508"},"21651":{"no":"21651","lng":"103.72402172321266","name":"Opp Chinese Gdn","lat":"1.33873014874255"},"21659":{"no":"21659","lng":"103.72410808486939","name":"Chinese Gdn","lat":"1.33896010542304"},"21661":{"no":"21661","lng":"103.72141430185464","name":"Yuan Ching Sec Sch","lat":"1.34176560473259"},"21669":{"no":"21669","lng":"103.7220951930324","name":"Opp Blk 134D","lat":"1.34134214489014"},"21671":{"no":"21671","lng":"103.72376166703002","name":"Blk 331","lat":"1.33806500003375"},"21679":{"no":"21679","lng":"103.72358362464975","name":"Blk 329","lat":"1.3377621978639"},"21681":{"no":"21681","lng":"103.71466298692037","name":"Opp Blk 200","lat":"1.34228732259066"},"21689":{"no":"21689","lng":"103.71442338427325","name":"Blk 200","lat":"1.34241984576482"},"21691":{"no":"21691","lng":"103.71138811111824","name":"Opp Jurong Fire Stn","lat":"1.34107859811695"},"21699":{"no":"21699","lng":"103.71203075013112","name":"Jurong Fire Stn","lat":"1.34154982082089"},"21711":{"no":"21711","lng":"103.7157628162222","name":"Bet Blks 523/525","lat":"1.34699884210956"},"21719":{"no":"21719","lng":"103.71507297402223","name":"Opp Blk 529","lat":"1.34779474567713"},"21751":{"no":"21751","lng":"103.72480472198433","name":"Jurong Sec Sch","lat":"1.33089333300685"},"21759":{"no":"21759","lng":"103.7249113116863","name":"Opp Jurong Sec Sch","lat":"1.33032387572414"},"21761":{"no":"21761","lng":"103.72476805601295","name":"Blk 138B","lat":"1.32831333299986"},"21769":{"no":"21769","lng":"103.7249037836336","name":"Opp Blk 143","lat":"1.32847554099899"},"21771":{"no":"21771","lng":"103.72373023682435","name":"Aft Corporation Dr","lat":"1.3265799244816"},"21779":{"no":"21779","lng":"103.72425774502393","name":"Aft Yuan Ching Rd","lat":"1.32643572160288"},"22009":{"no":"22009","lng":"103.70545701843297","name":"Boon Lay Int","lat":"1.33932334709184"},"22011":{"no":"22011","lng":"103.7077550377112","name":"Jurong Bird Pk","lat":"1.32129797964322"},"22019":{"no":"22019","lng":"103.7071133033833","name":"Opp Jurong Bird Pk","lat":"1.32202402246272"},"22021":{"no":"22021","lng":"103.70369314086494","name":"Opp PCI","lat":"1.32168245080395"},"22029":{"no":"22029","lng":"103.70268212142697","name":"PCI","lat":"1.32244971744256"},"22031":{"no":"22031","lng":"103.69855176773174","name":"Sankyu S'pore","lat":"1.32216806047952"},"22039":{"no":"22039","lng":"103.69861624674222","name":"Markono Holdings","lat":"1.32284076507861"},"22041":{"no":"22041","lng":"103.69873083298778","name":"Aft Tg Kling Rd","lat":"1.31463499997457"},"22049":{"no":"22049","lng":"103.69788888900642","name":"Bef Tg Kling Rd","lat":"1.3144663889863"},"22051":{"no":"22051","lng":"103.7020447220124","name":"Opp Sembawang Kimtrans","lat":"1.31386916701697"},"22059":{"no":"22059","lng":"103.70126249997799","name":"Sembawang Kimtrans","lat":"1.3136061110111"},"22061":{"no":"22061","lng":"103.70464097156747","name":"Opp Cooling Sys Pte Ltd","lat":"1.31427617763344"},"22069":{"no":"22069","lng":"103.70379462205501","name":"Cooling Sys Pte Ltd","lat":"1.31365447950552"},"22071":{"no":"22071","lng":"103.70695129035255","name":"Bef Jurong Pier Rd","lat":"1.31433636827053"},"22079":{"no":"22079","lng":"103.70804979014268","name":"Aft Jurong Pier Rd","lat":"1.31394399203055"},"22081":{"no":"22081","lng":"103.70037593299399","name":"Opp Natsteel","lat":"1.30599555710248"},"22089":{"no":"22089","lng":"103.70087805599307","name":"Natsteel","lat":"1.30589277802592"},"22091":{"no":"22091","lng":"103.6965558745042","name":"Aft Jln Samulun","lat":"1.30880721630907"},"22099":{"no":"22099","lng":"103.69688960154522","name":"Bef Jln Samulun","lat":"1.30879764761052"},"22141":{"no":"22141","lng":"103.69631182452453","name":"Aft Jln Buroh","lat":"1.3173196040118"},"22149":{"no":"22149","lng":"103.6959517251446","name":"Bef Jln Buroh","lat":"1.3173330063793"},"22151":{"no":"22151","lng":"103.69627164313702","name":"Hitachi","lat":"1.32095233702714"},"22159":{"no":"22159","lng":"103.69663318172152","name":"Opp Hitachi","lat":"1.32095243330175"},"22161":{"no":"22161","lng":"103.69643109025226","name":"Aft Lok Yang Way","lat":"1.32551656861142"},"22169":{"no":"22169","lng":"103.6966157738775","name":"Aft Intl Rd","lat":"1.32624542877841"},"22171":{"no":"22171","lng":"103.69637694399475","name":"Opp Secura S'pore","lat":"1.32954166703099"},"22179":{"no":"22179","lng":"103.6966590690515","name":"Bef Secura","lat":"1.33000472340216"},"22181":{"no":"22181","lng":"103.69637694442996","name":"S'pore Post","lat":"1.33301611112037"},"22189":{"no":"22189","lng":"103.69666289847902","name":"Pioneer Junction","lat":"1.33369710730493"},"22191":{"no":"22191","lng":"103.69832754842358","name":"Soon Lee Depot","lat":"1.33130584013018"},"22199":{"no":"22199","lng":"103.69854569435333","name":"Opp Soon Lee Depot","lat":"1.33103913771909"},"22219":{"no":"22219","lng":"103.70260743188996","name":"Aft Neythal Rd","lat":"1.32764556072381"},"22221":{"no":"22221","lng":"103.69785686002558","name":"Aft Pioneer Rd Nth","lat":"1.32790916071437"},"22229":{"no":"22229","lng":"103.69887468380779","name":"Bef Pioneer Rd Nth","lat":"1.32764334311"},"22231":{"no":"22231","lng":"103.69717899290252","name":"Blk 639","lat":"1.34079486676221"},"22239":{"no":"22239","lng":"103.69742194398371","name":"Blk 624","lat":"1.34081972201603"},"22241":{"no":"22241","lng":"103.69938392223636","name":"Opp Blk 622","lat":"1.34012270744787"},"22249":{"no":"22249","lng":"103.69865436006683","name":"Blk 622","lat":"1.34016007378301"},"22251":{"no":"22251","lng":"103.70265666700926","name":"Blk 665A","lat":"1.34073333303053"},"22259":{"no":"22259","lng":"103.7025463831608","name":"Blk 668D","lat":"1.34089136412278"},"22271":{"no":"22271","lng":"103.7001114570651","name":"Jebsen & Jessen","lat":"1.32924582821916"},"22281":{"no":"22281","lng":"103.70375258407391","name":"Aft Soon Lee Rd","lat":"1.32849264291843"},"22289":{"no":"22289","lng":"103.70284000001512","name":"Bef Fan Yoong Rd","lat":"1.32926333300758"},"22299":{"no":"22299","lng":"103.70177410483808","name":"Seng Mee Trading","lat":"1.33068833434452"},"22309":{"no":"22309","lng":"103.7033808329889","name":"Aft Fan Yoong Rd","lat":"1.33326999997395"},"22319":{"no":"22319","lng":"103.70545250001828","name":"Chun Chun Mfg","lat":"1.33198138900019"},"22329":{"no":"22329","lng":"103.70501590196446","name":"Opp Sam Mccoy Engrg","lat":"1.33024346855102"},"22331":{"no":"22331","lng":"103.70317916961058","name":"Jurong Shipyard","lat":"1.30485847664917"},"22341":{"no":"22341","lng":"103.70103326346653","name":"Blk 673C","lat":"1.34491616105023"},"22349":{"no":"22349","lng":"103.7007962851633","name":"Blk 734A","lat":"1.34520537289138"},"22351":{"no":"22351","lng":"103.69803382884736","name":"Opp Blk 717","lat":"1.34277421893699"},"22359":{"no":"22359","lng":"103.69727527800597","name":"Blk 717","lat":"1.3425266670299"},"22361":{"no":"22361","lng":"103.69587277801652","name":"Blk 641","lat":"1.34077805602959"},"22369":{"no":"22369","lng":"103.69511038795854","name":"Blk 705","lat":"1.34033186393306"},"22391":{"no":"22391","lng":"103.6957230721563","name":"Bef Jln Buroh","lat":"1.31342749923518"},"22399":{"no":"22399","lng":"103.69601603244551","name":"Aft Jln Buroh","lat":"1.31345707127095"},"22401":{"no":"22401","lng":"103.69714966993958","name":"Aft Shipyard Rd","lat":"1.31007875279152"},"22409":{"no":"22409","lng":"103.69741989860339","name":"Bef Shipyard Rd","lat":"1.31014256556667"},"22411":{"no":"22411","lng":"103.70380100924208","name":"Blk 676B","lat":"1.34626796042608"},"22419":{"no":"22419","lng":"103.70286134292765","name":"Jurong West Sub-Stn","lat":"1.34622597800485"},"22421":{"no":"22421","lng":"103.69872388898081","name":"Natl Oxygen Pte Ltd","lat":"1.30775500000365"},"22429":{"no":"22429","lng":"103.69908070609895","name":"Opp Natl Oxygen Pte Ltd","lat":"1.30725749703402"},"22431":{"no":"22431","lng":"103.70742208599415","name":"Opp Par Investment","lat":"1.33308242562379"},"22439":{"no":"22439","lng":"103.70680944659455","name":"Aft Par Investment","lat":"1.33311257526168"},"22441":{"no":"22441","lng":"103.7036274900942","name":"Blk 669 CP","lat":"1.3426698715623"},"22449":{"no":"22449","lng":"103.70380658858679","name":"Blk 685B","lat":"1.34276211470086"},"22451":{"no":"22451","lng":"103.69541055164287","name":"Opp Blk 643","lat":"1.33873415852966"},"22459":{"no":"22459","lng":"103.69545523603354","name":"Blk 643","lat":"1.33918675246348"},"22461":{"no":"22461","lng":"103.6962049999685","name":"Opp Blk 653B","lat":"1.33596194443399"},"22469":{"no":"22469","lng":"103.69631873743737","name":"Blk 653B","lat":"1.33649062479414"},"22471":{"no":"22471","lng":"103.6931453983202","name":"Bef Jurong West St 93","lat":"1.33509047686273"},"22479":{"no":"22479","lng":"103.693102645977","name":"Aft Jurong West St 93","lat":"1.33474242487786"},"22481":{"no":"22481","lng":"103.70554089546958","name":"Blk 691A CP","lat":"1.3424622384747"},"22489":{"no":"22489","lng":"103.70536833792208","name":"Blk 683A","lat":"1.34258460261"},"22491":{"no":"22491","lng":"103.70478201670083","name":"Blk 662D","lat":"1.33721274298352"},"22499":{"no":"22499","lng":"103.70488157561539","name":"Opp Blk 662C","lat":"1.33752755300605"},"22501":{"no":"22501","lng":"103.70297847077269","name":"Blk 662A","lat":"1.33767771437494"},"22509":{"no":"22509","lng":"103.70325870606952","name":"Blk 663E","lat":"1.33798691238898"},"22511":{"no":"22511","lng":"103.7003014099379","name":"Blk 658C","lat":"1.33746895557548"},"22519":{"no":"22519","lng":"103.69995222107629","name":"Blk 608","lat":"1.33775025227906"},"22521":{"no":"22521","lng":"103.69773696888457","name":"Blk 651A","lat":"1.33742599682738"},"22529":{"no":"22529","lng":"103.69711247040044","name":"Blk 649A","lat":"1.33774883304557"},"22531":{"no":"22531","lng":"103.6981437537688","name":"Opp Jurong West Pr Sch","lat":"1.33922673310366"},"22539":{"no":"22539","lng":"103.69838678279567","name":"Jurong West Pr Sch","lat":"1.33919523713654"},"22541":{"no":"22541","lng":"103.69761016575693","name":"Blk 655","lat":"1.33496804809618"},"22549":{"no":"22549","lng":"103.69795361380136","name":"Opp Blk 655","lat":"1.33463563122766"},"22551":{"no":"22551","lng":"103.70065616150622","name":"Blk 657","lat":"1.33498204269222"},"22559":{"no":"22559","lng":"103.70101403397047","name":"Opp Blk 657","lat":"1.33465462202129"},"22561":{"no":"22561","lng":"103.704144267721","name":"Blk 660","lat":"1.33497038465954"},"22569":{"no":"22569","lng":"103.70458203446965","name":"Opp Blk 660","lat":"1.33464939590143"},"22571":{"no":"22571","lng":"103.70689097976616","name":"Opp Boon Lay Stn","lat":"1.33780381373794"},"22591":{"no":"22591","lng":"103.70329583335823","name":"Blk 670A","lat":"1.34425833334291"},"22599":{"no":"22599","lng":"103.70308100001235","name":"Blk 678D","lat":"1.34484038298879"},"22609":{"no":"22609","lng":"103.69830144019609","name":"Soon Lee Bus Pk","lat":"1.33048210252836"},"23011":{"no":"23011","lng":"103.69250829071932","name":"Carrier Transicold Pte Ltd","lat":"1.32240518497889"},"23019":{"no":"23019","lng":"103.69256700002227","name":"Nippon Paint","lat":"1.32302099996901"},"23021":{"no":"23021","lng":"103.6851860612218","name":"General Motors","lat":"1.32243595181684"},"23029":{"no":"23029","lng":"103.68622888892132","name":"Stamford Tyre","lat":"1.32302194442237"},"23031":{"no":"23031","lng":"103.68099108399514","name":"Phillips Electronics","lat":"1.32239543114794"},"23039":{"no":"23039","lng":"103.68151388887642","name":"Opp Phillips Electronics","lat":"1.32303111111252"},"23041":{"no":"23041","lng":"103.69055967203332","name":"Opp Jurong Camp","lat":"1.33334088691759"},"23049":{"no":"23049","lng":"103.69061140570352","name":"Jurong Camp","lat":"1.33410764081742"},"23051":{"no":"23051","lng":"103.68928138898715","name":"Bef Kian Teck Rd","lat":"1.33168972198862"},"23059":{"no":"23059","lng":"103.68813759846915","name":"Aft Kian Teck Rd","lat":"1.33071284667323"},"23061":{"no":"23061","lng":"103.68652222202904","name":"Aft Kian Teck Rd","lat":"1.329527778021"},"23069":{"no":"23069","lng":"103.68582019131013","name":"Bef Kian Teck Rd","lat":"1.32989950511553"},"23071":{"no":"23071","lng":"103.68257796013837","name":"Opp SAFTI Military Inst","lat":"1.32977056006705"},"23079":{"no":"23079","lng":"103.68181544225693","name":"SAFTI Military Inst","lat":"1.33017908917854"},"23081":{"no":"23081","lng":"103.67826798978071","name":"Opp S'pore Discovery Ctr","lat":"1.33011660553179"},"23089":{"no":"23089","lng":"103.67843466317231","name":"S'pore Discovery Ctr","lat":"1.330433728881"},"23091":{"no":"23091","lng":"103.69276227893867","name":"Nippon","lat":"1.32451861639004"},"23099":{"no":"23099","lng":"103.69286142759196","name":"Bef First Lok Yang Rd","lat":"1.32467117178875"},"23101":{"no":"23101","lng":"103.69091333299923","name":"Opp Nichias (S)","lat":"1.32453472201272"},"23109":{"no":"23109","lng":"103.69068388898825","name":"Aft Third Lok Yang Rd","lat":"1.32468138902865"},"23111":{"no":"23111","lng":"103.68836472199122","name":"Hitachi Cable","lat":"1.32454666699618"},"23119":{"no":"23119","lng":"103.68847743952205","name":"Opp Hitachi Cable Pte Ltd","lat":"1.32467561470377"},"23121":{"no":"23121","lng":"103.68564634652004","name":"Hitachi Cable","lat":"1.32454951872062"},"23129":{"no":"23129","lng":"103.68558762196439","name":"Opp PCB Ltd","lat":"1.32468096678984"},"23131":{"no":"23131","lng":"103.684046944028","name":"Opp Leroy Somer","lat":"1.32537111100949"},"23139":{"no":"23139","lng":"103.68414777801725","name":"Bef Lok Yang Way","lat":"1.32517166702255"},"23141":{"no":"23141","lng":"103.68401506144217","name":"Opp Varco","lat":"1.32666880692569"},"23149":{"no":"23149","lng":"103.68416474851742","name":"Metoxide Pte Ltd","lat":"1.32683034567488"},"23151":{"no":"23151","lng":"103.68483459543562","name":"Containers Printers","lat":"1.32788229015066"},"23159":{"no":"23159","lng":"103.68563350571777","name":"Aft Fifth Lok Yang Rd","lat":"1.32766374044406"},"23161":{"no":"23161","lng":"103.68869472049072","name":"Promoter Group","lat":"1.3278839556405"},"23169":{"no":"23169","lng":"103.68867638901021","name":"Bef Kian Teck Rd","lat":"1.32768833297607"},"23171":{"no":"23171","lng":"103.69118969248986","name":"SKK (S) Pte Ltd","lat":"1.32789603640425"},"23179":{"no":"23179","lng":"103.69102029335356","name":"Aft Second Lok Yang Rd","lat":"1.32767284372911"},"23181":{"no":"23181","lng":"103.69448861100467","name":"Aft Kian Teck Rd","lat":"1.32790305599387"},"23189":{"no":"23189","lng":"103.69397532297509","name":"Bef First Lok Yang Rd","lat":"1.32764459746447"},"23191":{"no":"23191","lng":"103.68362765144359","name":"Opp S'pore Tpt Pte Ltd","lat":"1.31966145615591"},"23199":{"no":"23199","lng":"103.68312351699183","name":"S'pore Tpt Pte Ltd","lat":"1.31951264524841"},"23201":{"no":"23201","lng":"103.68628552653574","name":"Opp Shimano Pte Ltd","lat":"1.31964589958011"},"23209":{"no":"23209","lng":"103.68577614249959","name":"Aft Shimano Pte Ltd","lat":"1.31950327084795"},"23211":{"no":"23211","lng":"103.6892047185557","name":"Opp Regent Motors","lat":"1.31792061914698"},"23219":{"no":"23219","lng":"103.68852528629336","name":"Aft Regent Motors","lat":"1.31832727349422"},"23221":{"no":"23221","lng":"103.67178095052478","name":"Aft Gul Way","lat":"1.30896659624814"},"23229":{"no":"23229","lng":"103.67180644651505","name":"Opp Gul Way","lat":"1.30868757581216"},"23231":{"no":"23231","lng":"103.67491833296833","name":"Keppel Logistics","lat":"1.30926499998419"},"23239":{"no":"23239","lng":"103.67513000000729","name":"Opp Keppel Logistics","lat":"1.30916000001419"},"23241":{"no":"23241","lng":"103.67981162071217","name":"Aft Benoi Rd","lat":"1.3102543597714"},"23249":{"no":"23249","lng":"103.67948846644917","name":"Bef Benoi Rd","lat":"1.30990348653039"},"23251":{"no":"23251","lng":"103.68378143028161","name":"Aft Shipyard Rd","lat":"1.3117223561773"},"23259":{"no":"23259","lng":"103.6836649596919","name":"Bef Shipyard Rd","lat":"1.31139556205987"},"23261":{"no":"23261","lng":"103.68577338809426","name":"Opp Exxon Mobil","lat":"1.31264863196713"},"23269":{"no":"23269","lng":"103.6857799047387","name":"Exxon Mobil","lat":"1.312406285462"},"23279":{"no":"23279","lng":"103.69162853660083","name":"Bef Benoi Sector","lat":"1.3149287594586"},"23281":{"no":"23281","lng":"103.6789673712784","name":"Aft Pioneer Rd","lat":"1.30650617564734"},"23291":{"no":"23291","lng":"103.67930477414359","name":"S'pore Shipbldg Engrg","lat":"1.30382409549165"},"23301":{"no":"23301","lng":"103.67953903241491","name":"Bef Benoi Basin","lat":"1.30212057066579"},"23311":{"no":"23311","lng":"103.67745555601714","name":"Keppel Shipyard","lat":"1.30178638897679"},"23321":{"no":"23321","lng":"103.67618479236954","name":"Opp Sinip Steel Pte Ltd","lat":"1.30404333032775"},"23331":{"no":"23331","lng":"103.67584222201577","name":"Opp JP Nelson","lat":"1.30689333299079"},"23341":{"no":"23341","lng":"103.67850804808974","name":"Aft Pioneer Rd","lat":"1.31118496429579"},"23349":{"no":"23349","lng":"103.67871579430353","name":"Bef Pioneer Rd","lat":"1.31076855055702"},"23351":{"no":"23351","lng":"103.67874941599844","name":"Aft Gul Ave","lat":"1.31615485867639"},"23359":{"no":"23359","lng":"103.6788828370567","name":"Opp Gul Ave","lat":"1.31500500807478"},"23361":{"no":"23361","lng":"103.6788383227952","name":"Opp S'pore Warehse & Tpt","lat":"1.31910770453777"},"23369":{"no":"23369","lng":"103.67911023430729","name":"S'pore Warehse & Tpt","lat":"1.31907826658404"},"23371":{"no":"23371","lng":"103.6790814673288","name":"Opp Hitachi Elect Devices","lat":"1.32595445317751"},"23379":{"no":"23379","lng":"103.67939439835483","name":"Hitachi Elect Devices","lat":"1.3265431228454"},"23389":{"no":"23389","lng":"103.69377301234816","name":"PEC Ltd","lat":"1.30755644701044"},"23399":{"no":"23399","lng":"103.69237083299343","name":"Keppel Offshore & Marine","lat":"1.30533638898993"},"23409":{"no":"23409","lng":"103.68933638897875","name":"Mobil Marine Ter","lat":"1.30352138897737"},"23419":{"no":"23419","lng":"103.6861461109867","name":"Bef Shipyard Cres","lat":"1.30380777799126"},"23429":{"no":"23429","lng":"103.68472051252805","name":"Opp EMAS Marine Base","lat":"1.30456833652112"},"23439":{"no":"23439","lng":"103.68468656882482","name":"Opp SML Shipyard Ltd","lat":"1.30774277950908"},"23441":{"no":"23441","lng":"103.67862695881058","name":"Opp Benoi Pl","lat":"1.31304186906391"},"23449":{"no":"23449","lng":"103.67877583300174","name":"Benoi Pl","lat":"1.31284166701008"},"23451":{"no":"23451","lng":"103.6972844439932","name":"Jurong Shipyard","lat":"1.30402666700212"},"23461":{"no":"23461","lng":"103.69643466903611","name":"Selco Pte Ltd","lat":"1.30546916761511"},"23469":{"no":"23469","lng":"103.69683459275382","name":"Opp Selco Pte Ltd","lat":"1.3050852014562"},"23471":{"no":"23471","lng":"103.68097194774356","name":"Bef S'pore Tpt Pte Ltd","lat":"1.31966340928848"},"23479":{"no":"23479","lng":"103.68065985334341","name":"Aft S'pore Tpt Pte Ltd","lat":"1.31950924526288"},"23481":{"no":"23481","lng":"103.68174669439477","name":"Molex","lat":"1.32791691676156"},"23489":{"no":"23489","lng":"103.68048864270644","name":"Opp Molex","lat":"1.32759688194654"},"23491":{"no":"23491","lng":"103.67780864699097","name":"Joo Koon Stn","lat":"1.32792408366339"},"23499":{"no":"23499","lng":"103.67805103515069","name":"Joo Koon Stn","lat":"1.32755092355685"},"23501":{"no":"23501","lng":"103.6958354332658","name":"Aft Pioneer Rd Nth","lat":"1.32453160328451"},"23509":{"no":"23509","lng":"103.69561678727867","name":"Hoe Keng Motor","lat":"1.32468013030892"},"23519":{"no":"23519","lng":"103.6793660000188","name":"Opp FairPrice Hub","lat":"1.32479352408668"},"24009":{"no":"24009","lng":"103.67839791240787","name":"Joo Koon Int","lat":"1.32697254709069"},"24011":{"no":"24011","lng":"103.6776263194759","name":"M.C. Packaging Pte Ltd","lat":"1.32230923979842"},"24019":{"no":"24019","lng":"103.67728206793541","name":"Liang Huat Ind Cplx","lat":"1.32288721900936"},"24021":{"no":"24021","lng":"103.67087977752024","name":"Meritor Heavy Veh Systems","lat":"1.32185257239826"},"24029":{"no":"24029","lng":"103.67132658072524","name":"Mazak S'pore","lat":"1.3224709639188"},"24041":{"no":"24041","lng":"103.67499316670492","name":"Opp Pasir Laba Camp","lat":"1.33035313055333"},"24049":{"no":"24049","lng":"103.67379074701834","name":"Pasir Laba Camp","lat":"1.33094144977498"},"24089":{"no":"24089","lng":"103.67069001700851","name":"Aft Gul Ave","lat":"1.31445576142607"},"24129":{"no":"24129","lng":"103.66987144292962","name":"Opp Yeow San Pte Ltd","lat":"1.32614180600676"},"24139":{"no":"24139","lng":"103.67193012673827","name":"Opp Toyo Ink","lat":"1.32733592150747"},"24149":{"no":"24149","lng":"103.67466321781171","name":"Ind Svcs Pte Ltd","lat":"1.32754011144327"},"24159":{"no":"24159","lng":"103.67664244711858","name":"Aft Joo Koon Rd","lat":"1.3268422233348"},"24169":{"no":"24169","lng":"103.66671593002816","name":"Bef Gul Circle","lat":"1.31038624703757"},"24179":{"no":"24179","lng":"103.66477126222463","name":"Opp Hong Hock Hardware","lat":"1.30940312319597"},"24189":{"no":"24189","lng":"103.6619380811675","name":"Tai Sin Electric Cables","lat":"1.31116229073472"},"24199":{"no":"24199","lng":"103.65993666344218","name":"JB Ind Pte Ltd","lat":"1.31308152323838"},"24209":{"no":"24209","lng":"103.65986932009741","name":"Aft Gul Lane","lat":"1.31523764085318"},"24219":{"no":"24219","lng":"103.66267154250265","name":"Toyo Glass Machinery","lat":"1.31822701576325"},"24229":{"no":"24229","lng":"103.66615348821185","name":"Aft Gul St 3","lat":"1.31953778109044"},"24239":{"no":"24239","lng":"103.6690038889689","name":"Bef Gul St 1","lat":"1.31979166699662"},"24249":{"no":"24249","lng":"103.67231073811735","name":"Asiatic Agricultural Ind","lat":"1.3200141711372"},"24259":{"no":"24259","lng":"103.6756285744157","name":"Chong Trading Pte Ltd","lat":"1.32022430366593"},"24269":{"no":"24269","lng":"103.67660828077693","name":"Sing Huat Hardware","lat":"1.31796007151086"},"24279":{"no":"24279","lng":"103.6767463061916","name":"Cameron Iron Works","lat":"1.31480277476233"},"24289":{"no":"24289","lng":"103.674858525035","name":"Opp Keppel T & T","lat":"1.31240457504935"},"24299":{"no":"24299","lng":"103.67165007095036","name":"Aft Gul Way","lat":"1.31215859373419"},"24301":{"no":"24301","lng":"103.66584908540896","name":"Opp AMF Far East","lat":"1.31260985884793"},"24331":{"no":"24331","lng":"103.66868333299611","name":"Opp Robin Shipyard","lat":"1.30854833300657"},"24339":{"no":"24339","lng":"103.66899333300486","name":"Robin Shipyard","lat":"1.30840666698801"},"24341":{"no":"24341","lng":"103.67069575266142","name":"Opp Keppel Shipyard","lat":"1.29559624794118"},"24349":{"no":"24349","lng":"103.67091644467769","name":"Keppel Shipyard","lat":"1.29557792043984"},"24351":{"no":"24351","lng":"103.6683905248493","name":"Opp S'pore Takada Ind","lat":"1.29811763317717"},"24359":{"no":"24359","lng":"103.66853349337183","name":"S'pore Takada Ind","lat":"1.29822556407932"},"24369":{"no":"24369","lng":"103.66698326196405","name":"Dyna-Mac Engrg Svcs","lat":"1.30077687663858"},"24379":{"no":"24379","lng":"103.66588434674222","name":"Opp Asia Ind Gases","lat":"1.30366277967429"},"24381":{"no":"24381","lng":"103.66532722200753","name":"GE Keppel Energy Svcs","lat":"1.3068880559927"},"24389":{"no":"24389","lng":"103.66551563876423","name":"Opp GE Keppel Energy Svcs","lat":"1.30668431065764"},"24391":{"no":"24391","lng":"103.66447101698635","name":"Chem-Solv Technologies","lat":"1.29859319877639"},"24401":{"no":"24401","lng":"103.66355777798681","name":"Hoe Huat Engrg","lat":"1.30031638897466"},"24411":{"no":"24411","lng":"103.66173361100701","name":"Gul Camp","lat":"1.30243777798816"},"24421":{"no":"24421","lng":"103.65950611101405","name":"Opp Pan Abrasives Ltd","lat":"1.30463277796645"},"24431":{"no":"24431","lng":"103.6576999999841","name":"Aft Pioneer Sector 2","lat":"1.30726611103183"},"24441":{"no":"24441","lng":"103.66096830094709","name":"Opp Hoechst S'pore","lat":"1.30713498253909"},"24451":{"no":"24451","lng":"103.66378722029442","name":"Aft S'pore Steel Ltd","lat":"1.30599340060276"},"24461":{"no":"24461","lng":"103.66626018526829","name":"Smarty BT Oilfield","lat":"1.29723931495896"},"24489":{"no":"24489","lng":"103.67111058135133","name":"Steel Storage Asia","lat":"1.32574395668742"},"24499":{"no":"24499","lng":"103.67439565139507","name":"Chuan Kiat Metal & Ind","lat":"1.32598700998791"},"24501":{"no":"24501","lng":"103.66479791875364","name":"Bef Tuas Flyover","lat":"1.32424896848956"},"24509":{"no":"24509","lng":"103.66411622471436","name":"Aft Tuas Flyover","lat":"1.32431478516881"},"24511":{"no":"24511","lng":"103.66055805567038","name":"Tuas Fire Stn","lat":"1.31922823563021"},"24519":{"no":"24519","lng":"103.66080745855623","name":"Opp Tuas Fire Stn","lat":"1.32003033688222"},"24521":{"no":"24521","lng":"103.65887836276522","name":"Bef Tuas Ave 5","lat":"1.317440843177"},"24529":{"no":"24529","lng":"103.65816649904158","name":"Aft Tuas Ave 5","lat":"1.31721248927948"},"24531":{"no":"24531","lng":"103.65688416696948","name":"Utracon Corp","lat":"1.30622638897168"},"24539":{"no":"24539","lng":"103.65548029310382","name":"Dundee Marine","lat":"1.30492020241064"},"24541":{"no":"24541","lng":"103.6556555059217","name":"Opp Keppel Shipyard","lat":"1.30275657598845"},"24549":{"no":"24549","lng":"103.65543583300811","name":"Keppel Shipyard","lat":"1.30273638896787"},"24559":{"no":"24559","lng":"103.6574800000263","name":"HQ 6 Div","lat":"1.30079305601761"},"24571":{"no":"24571","lng":"103.6690675022225","name":"Nypro (S)","lat":"1.32367555849755"},"24581":{"no":"24581","lng":"103.666995833031","name":"Opp ESAB","lat":"1.3249613889807"},"24599":{"no":"24599","lng":"103.66926644008088","name":"Bef Joo Koon Way","lat":"1.32562284433654"},"24601":{"no":"24601","lng":"103.65486500001047","name":"Calvanizing","lat":"1.31333999996651"},"24609":{"no":"24609","lng":"103.65475166394909","name":"Opp Calvanizing","lat":"1.3134310373537"},"24611":{"no":"24611","lng":"103.65254056553094","name":"Bef Marinteknik","lat":"1.31085562935941"},"24619":{"no":"24619","lng":"103.65260471956782","name":"Opp Marinteknik","lat":"1.31113971951498"},"24621":{"no":"24621","lng":"103.64977944402521","name":"Aft Ocean Tanker","lat":"1.30797138899535"},"24629":{"no":"24629","lng":"103.65015527797974","name":"Opp Ocean Tanker","lat":"1.3085113890287"},"24631":{"no":"24631","lng":"103.67824444522353","name":"Bef Benoi Rd","lat":"1.32056657586424"},"24639":{"no":"24639","lng":"103.67791569301414","name":"Aft Benoi Rd","lat":"1.32041012800861"},"24641":{"no":"24641","lng":"103.66551388890647","name":"Opp Tuboscope Vetco","lat":"1.31424000000651"},"24651":{"no":"24651","lng":"103.66882611097928","name":"Metall-Treat Ind","lat":"1.31490027800406"},"24671":{"no":"24671","lng":"103.66123000003104","name":"JSW Plastic Machinery","lat":"1.30957805602715"},"24679":{"no":"24679","lng":"103.6612549652211","name":"Bet LP 166/167","lat":"1.30929393064989"},"24681":{"no":"24681","lng":"103.65863348470843","name":"Opp Jurong Insp","lat":"1.31200874931979"},"24689":{"no":"24689","lng":"103.65889588893424","name":"LP 173","lat":"1.31152436181276"},"24691":{"no":"24691","lng":"103.65712805602769","name":"LP 179","lat":"1.31344500002083"},"24699":{"no":"24699","lng":"103.65690250002406","name":"Bet LP 179/180","lat":"1.31345305601187"},"25009":{"no":"25009","lng":"103.63920357507963","name":"Tuas Ter","lat":"1.34499542766088"},"25061":{"no":"25061","lng":"103.64528750001706","name":"Toshiba Chemical S'pore","lat":"1.32758500003063"},"25069":{"no":"25069","lng":"103.64551802153501","name":"Mayfran Group","lat":"1.32751179627799"},"25071":{"no":"25071","lng":"103.64320638902281","name":"Opp Nissin Tpt","lat":"1.32958277801799"},"25079":{"no":"25079","lng":"103.64347153803386","name":"Nissin Tpt","lat":"1.32944568983893"},"25091":{"no":"25091","lng":"103.64520499998908","name":"Aft Tuas Ave 7","lat":"1.33443305603142"},"25099":{"no":"25099","lng":"103.6449493341418","name":"Opto-Pharm","lat":"1.33392910725335"},"25101":{"no":"25101","lng":"103.64783751324052","name":"Opp SMC Mfg","lat":"1.33428472907824"},"25109":{"no":"25109","lng":"103.64732250002415","name":"SMC Mfg","lat":"1.33462333299665"},